[
  {
    "address": "1500 Block Of La Salle  Avenue",
    "date": "12/05/2013",
    "eviction_id": "M132408",
    "neighborhood": "Bayview Hunters Point",
    "reason": "Nuisance",
    "supervisor_district": "10",
    "zip": "94124",
    "year": "2013",
    "lat": "37.7359790208273",
    "long": " -122.387994549376"
  },
  {
    "address": "800 Block Of Hampshire  Street",
    "date": "07/18/2012",
    "eviction_id": "M120769",
    "neighborhood": "Mission",
    "reason": "Owner Move In",
    "supervisor_district": "9",
    "zip": "94110",
    "year": "2012",
    "lat": "37.7585039851251",
    "long": " -122.407899319971"
  },
  {
    "address": "2600 Block Of 21st  Street",
    "date": "04/09/2014",
    "eviction_id": "M140739",
    "neighborhood": "Mission",
    "reason": "Owner Move In",
    "supervisor_district": "9",
    "zip": "94110",
    "year": "2014",
    "lat": "37.7576232172729",
    "long": " -122.408197661636"
  },
  {
    "address": "200 Block Of Mallorca  Way",
    "date": "01/16/2015",
    "eviction_id": "M150163",
    "neighborhood": "Marina",
    "reason": "Late Payments",
    "supervisor_district": "2",
    "zip": "94123",
    "year": "2015",
    "lat": "37.8026786425363",
    "long": " -122.43834826896"
  },
  {
    "address": "100 Block Of Fair Oaks  Street",
    "date": "12/12/2012",
    "eviction_id": "M122277",
    "neighborhood": "Mission",
    "reason": "Breach",
    "supervisor_district": "8",
    "zip": "94110",
    "year": "2012",
    "lat": "37.7543085855595",
    "long": " -122.424144017783"
  },
  {
    "address": "1400 Block Of Chestnut  Street",
    "date": "01/19/2011",
    "eviction_id": "M110070",
    "neighborhood": "Marina",
    "reason": "Nuisance",
    "supervisor_district": "2",
    "zip": "94123",
    "year": "2011",
    "lat": "37.8020216254074",
    "long": " -122.427210668222"
  },
  {
    "address": "300 Block Of Collingwood  Street",
    "date": "02/23/2015",
    "eviction_id": "M150341",
    "neighborhood": "Castro/Upper Market",
    "reason": "Owner Move In",
    "supervisor_district": "8",
    "zip": "94114",
    "year": "2015",
    "lat": "37.757020545205",
    "long": " -122.435675222711"
  },
  {
    "address": "2900 Block Of Jennings  Street",
    "date": "01/07/2013",
    "eviction_id": "M130055",
    "neighborhood": "Bayview Hunters Point",
    "reason": "Illegal Use",
    "supervisor_district": "10",
    "zip": "94124",
    "year": "2013",
    "lat": "37.7216895966858",
    "long": " -122.39339823815"
  },
  {
    "address": "200 Block Of Leavenworth  Street",
    "date": "04/23/2015",
    "eviction_id": "M150938",
    "neighborhood": "Tenderloin",
    "reason": "Nuisance",
    "supervisor_district": "6",
    "zip": "94102",
    "year": "2015",
    "lat": "37.7832504152422",
    "long": " -122.414216003054"
  },
  {
    "address": "100 Block Of Presidio  Avenue",
    "date": "12/07/2012",
    "eviction_id": "M122264",
    "neighborhood": "Presidio Heights",
    "reason": "Demolition",
    "supervisor_district": "2",
    "zip": "94115",
    "year": "2012",
    "lat": "37.7903902843772",
    "long": " -122.447347506856"
  },
  {
    "address": "0 Block Of Robblee  Avenue",
    "date": "11/16/2015",
    "eviction_id": "M153149",
    "neighborhood": "Bayview Hunters Point",
    "reason": "Roommate Same Unit",
    "supervisor_district": "10",
    "zip": "94124",
    "year": "2015",
    "lat": "37.7357126133141",
    "long": " -122.399154024427"
  },
  {
    "address": "900 Block Of Post  Street",
    "date": "01/14/2015",
    "eviction_id": "M150151",
    "neighborhood": "Nob Hill",
    "reason": "Late Payments",
    "supervisor_district": "3",
    "zip": "94109",
    "year": "2015",
    "lat": "37.7871735246735",
    "long": " -122.417641342758"
  },
  {
    "address": "500 Block Of Mississippi  Street",
    "date": "05/23/2014",
    "eviction_id": "M141007",
    "neighborhood": "Potrero Hill",
    "reason": "Owner Move In",
    "supervisor_district": "10",
    "zip": "94107",
    "year": "2014",
    "lat": "37.7588711231895",
    "long": " -122.394160784869"
  },
  {
    "address": "1000 Block Of Market  Street",
    "date": "10/28/2013",
    "eviction_id": "M132194",
    "neighborhood": "South of Market",
    "reason": "Demolition",
    "supervisor_district": "6",
    "zip": "94103",
    "year": "2013",
    "lat": "37.7812876875414",
    "long": " -122.411318055944"
  },
  {
    "address": "900 Block Of Jones  Street",
    "date": "04/12/2011",
    "eviction_id": "M110599",
    "neighborhood": "Nob Hill",
    "reason": "Multiple",
    "supervisor_district": "3",
    "zip": "94109",
    "year": "2011",
    "lat": "37.7899875725832",
    "long": " -122.413890485298"
  },
  {
    "address": "0 Block Of Powers  Avenue",
    "date": "04/12/2013",
    "eviction_id": "M130680",
    "neighborhood": "Bernal Heights",
    "reason": "Substantial Rehab",
    "supervisor_district": "9",
    "zip": "94110",
    "year": "2013",
    "lat": "37.7459098395864",
    "long": " -122.418985022312"
  },
  {
    "address": "400 Block Of Vallejo  Street",
    "date": "04/03/2015",
    "eviction_id": "M150716",
    "neighborhood": "North Beach",
    "reason": "Owner Move In",
    "supervisor_district": "3",
    "zip": "94133",
    "year": "2015",
    "lat": "37.799081056607",
    "long": " -122.40433193337"
  },
  {
    "address": "5800 Block Of Mission  Street",
    "date": "09/05/2013",
    "eviction_id": "M131750",
    "neighborhood": "Excelsior",
    "reason": "Multiple",
    "supervisor_district": "11",
    "zip": "94112",
    "year": "2013",
    "lat": "37.7094275480453",
    "long": " -122.450664127243"
  },
  {
    "address": "400 Block Of 33rd  Avenue",
    "date": "05/22/2014",
    "eviction_id": "M141172",
    "neighborhood": "Outer Richmond",
    "reason": "Illegal Use",
    "supervisor_district": "1",
    "zip": "94121",
    "year": "2014",
    "lat": "37.7806543962468",
    "long": " -122.493444371913"
  },
  {
    "address": "2700 Block Of 21st  Street",
    "date": "10/09/2012",
    "eviction_id": "M121929",
    "neighborhood": "Mission",
    "reason": "Breach",
    "supervisor_district": "9",
    "zip": "94110",
    "year": "2012",
    "lat": "37.7575682682955",
    "long": " -122.409114597386"
  },
  {
    "address": "1700 Block Of Newcomb  Avenue",
    "date": "02/08/2011",
    "eviction_id": "M110117",
    "neighborhood": "Bayview Hunters Point",
    "reason": "Breach",
    "supervisor_district": "10",
    "zip": "94124",
    "year": "2011",
    "lat": "37.7368641208681",
    "long": " -122.392545432284"
  },
  {
    "address": "500 Block Of Webster  Street",
    "date": "07/16/2013",
    "eviction_id": "M131176",
    "neighborhood": "Hayes Valley",
    "reason": "Owner Move In",
    "supervisor_district": "5",
    "zip": "94117",
    "year": "2013",
    "lat": "37.7753355946371",
    "long": " -122.429481203584"
  },
  {
    "address": "2000 Block Of Broadway  Street",
    "date": "02/05/2013",
    "eviction_id": "M130220",
    "neighborhood": "",
    "reason": "Breach",
    "supervisor_district": "",
    "zip": "94115",
    "year": "2013",
    "lat": "",
    "long": ""
  },
  {
    "address": "500 Block Of Capp  Street",
    "date": "02/14/2014",
    "eviction_id": "M140315",
    "neighborhood": "Mission",
    "reason": "Non Payment",
    "supervisor_district": "9",
    "zip": "94110",
    "year": "2014",
    "lat": "37.7579037625815",
    "long": " -122.417819318278"
  },
  {
    "address": "700 Block Of Monterey  Boulevard",
    "date": "01/16/2013",
    "eviction_id": "M130090",
    "neighborhood": "West of Twin Peaks",
    "reason": "Roommate Same Unit",
    "supervisor_district": "7",
    "zip": "94127",
    "year": "2013",
    "lat": "37.7316239329908",
    "long": " -122.452278465115"
  },
  {
    "address": "1000 Block Of Market  Street",
    "date": "10/07/2013",
    "eviction_id": "M131999",
    "neighborhood": "South of Market",
    "reason": "Demolition",
    "supervisor_district": "6",
    "zip": "94103",
    "year": "2013",
    "lat": "37.7812876875414",
    "long": " -122.411318055944"
  },
  {
    "address": "500 Block Of Lawton  Street",
    "date": "11/12/2013",
    "eviction_id": "M132342",
    "neighborhood": "Inner Sunset",
    "reason": "Ellis Act WithDrawal",
    "supervisor_district": "7",
    "zip": "94122",
    "year": "2013",
    "lat": "37.7583822839488",
    "long": " -122.468599492074"
  },
  {
    "address": "0 Block Of Wetmore  Street",
    "date": "12/17/2013",
    "eviction_id": "M132526",
    "neighborhood": "Nob Hill",
    "reason": "Ellis Act WithDrawal",
    "supervisor_district": "3",
    "zip": "94102",
    "year": "2013",
    "lat": "37.7935181354402",
    "long": " -122.41038907273"
  },
  {
    "address": "400 Block Of Warren  Drive",
    "date": "08/07/2014",
    "eviction_id": "M141730",
    "neighborhood": "Inner Sunset",
    "reason": "Breach",
    "supervisor_district": "7",
    "zip": "94131",
    "year": "2014",
    "lat": "37.7579763885838",
    "long": " -122.462011746779"
  },
  {
    "address": "600 Block Of Lakeview  Avenue",
    "date": "07/02/2013",
    "eviction_id": "M131160",
    "neighborhood": "Oceanview/Merced/Ingleside",
    "reason": "Owner Move In",
    "supervisor_district": "11",
    "zip": "94112",
    "year": "2013",
    "lat": "37.7181793592473",
    "long": " -122.456626241689"
  },
  {
    "address": "100 Block Of Leland  Avenue",
    "date": "08/01/2014",
    "eviction_id": "M141705",
    "neighborhood": "Visitacion Valley",
    "reason": "Breach",
    "supervisor_district": "10",
    "zip": "94134",
    "year": "2014",
    "lat": "37.7120587966687",
    "long": " -122.406110808835"
  },
  {
    "address": "500 Block Of 3rd  Street",
    "date": "06/04/2012",
    "eviction_id": "M120849",
    "neighborhood": "South of Market",
    "reason": "Breach",
    "supervisor_district": "6",
    "zip": "94107",
    "year": "2012",
    "lat": "37.7804887572667",
    "long": " -122.394897292198"
  },
  {
    "address": "0 Block Of Majestic  Avenue",
    "date": "09/01/2015",
    "eviction_id": "M152319",
    "neighborhood": "Oceanview/Merced/Ingleside",
    "reason": "Ellis Act WithDrawal",
    "supervisor_district": "11",
    "zip": "94112",
    "year": "2015",
    "lat": "37.7176993322876",
    "long": " -122.451373572602"
  },
  {
    "address": "1300 Block Of Taylor  Street",
    "date": "04/22/2015",
    "eviction_id": "M150930",
    "neighborhood": "Nob Hill",
    "reason": "Nuisance",
    "supervisor_district": "3",
    "zip": "94108",
    "year": "2015",
    "lat": "37.7947678771321",
    "long": " -122.413031075751"
  },
  {
    "address": "100 Block Of Del Monte  Street",
    "date": "10/31/2014",
    "eviction_id": "M142420",
    "neighborhood": "Outer Mission",
    "reason": "Multiple",
    "supervisor_district": "11",
    "zip": "94112",
    "year": "2014",
    "lat": "37.7150638780068",
    "long": " -122.444413897832"
  },
  {
    "address": "2800 Block Of 23rd  Street",
    "date": "12/16/2013",
    "eviction_id": "M132519",
    "neighborhood": "Mission",
    "reason": "Ellis Act WithDrawal",
    "supervisor_district": "9",
    "zip": "94110",
    "year": "2013",
    "lat": "37.7544242919275",
    "long": " -122.409741838392"
  },
  {
    "address": "1800 Block Of 16th  Avenue",
    "date": "12/16/2013",
    "eviction_id": "M132485",
    "neighborhood": "Inner Sunset",
    "reason": "Unapproved Subtenant",
    "supervisor_district": "7",
    "zip": "94122",
    "year": "2013",
    "lat": "37.7534473544488",
    "long": " -122.473266816242"
  },
  {
    "address": "200 Block Of Clara  Street",
    "date": "04/29/2015",
    "eviction_id": "M151033",
    "neighborhood": "South of Market",
    "reason": "Other Cause",
    "supervisor_district": "6",
    "zip": "94107",
    "year": "2015",
    "lat": "37.7785402502642",
    "long": " -122.40344270944"
  },
  {
    "address": "1400 Block Of Clay  Street",
    "date": "08/16/2012",
    "eviction_id": "M121259",
    "neighborhood": "Nob Hill",
    "reason": "Non Payment",
    "supervisor_district": "3",
    "zip": "94109",
    "year": "2012",
    "lat": "37.7928543973007",
    "long": " -122.416925085992"
  },
  {
    "address": "1100 Block Of Market  Street",
    "date": "08/16/2012",
    "eviction_id": "M121377",
    "neighborhood": "South of Market",
    "reason": "Development",
    "supervisor_district": "6",
    "zip": "94103",
    "year": "2012",
    "lat": "37.7795310847755",
    "long": " -122.413542549251"
  },
  {
    "address": "2100 Block Of Sutter  Street",
    "date": "06/26/2012",
    "eviction_id": "M120758",
    "neighborhood": "Pacific Heights",
    "reason": "Owner Move In",
    "supervisor_district": "2",
    "zip": "94115",
    "year": "2012",
    "lat": "37.7858262336357",
    "long": " -122.435748426487"
  },
  {
    "address": "100 Block Of Font  Boulevard",
    "date": "08/22/2011",
    "eviction_id": "M111400",
    "neighborhood": "Lakeshore",
    "reason": "Breach",
    "supervisor_district": "7",
    "zip": "94132",
    "year": "2011",
    "lat": "37.715545052959",
    "long": " -122.473629919957"
  },
  {
    "address": "0 Block Of Niantic  Avenue",
    "date": "09/14/2015",
    "eviction_id": "M152504",
    "neighborhood": "Oceanview/Merced/Ingleside",
    "reason": "Other Cause",
    "supervisor_district": "7",
    "zip": "94132",
    "year": "2015",
    "lat": "37.7090658371658",
    "long": " -122.468580569607"
  },
  {
    "address": "0 Block Of 25th  Avenue",
    "date": "04/09/2014",
    "eviction_id": "M140738",
    "neighborhood": "Seacliff",
    "reason": "Owner Move In",
    "supervisor_district": "2",
    "zip": "94121",
    "year": "2014",
    "lat": "37.7879708311089",
    "long": " -122.485378862381"
  },
  {
    "address": "300 Block Of Turk  Street",
    "date": "03/10/2011",
    "eviction_id": "M110311",
    "neighborhood": "Tenderloin",
    "reason": "Nuisance",
    "supervisor_district": "6",
    "zip": "94102",
    "year": "2011",
    "lat": "37.7827439710395",
    "long": " -122.414884812363"
  },
  {
    "address": "3600 Block Of Cabrillo  Street",
    "date": "08/14/2013",
    "eviction_id": "M131589",
    "neighborhood": "Outer Richmond",
    "reason": "Late Payments",
    "supervisor_district": "1",
    "zip": "94121",
    "year": "2013",
    "lat": "37.7738791213068",
    "long": " -122.497720186621"
  },
  {
    "address": "100 Block Of Cambon  Drive",
    "date": "07/24/2013",
    "eviction_id": "M131433",
    "neighborhood": "Lakeshore",
    "reason": "Breach",
    "supervisor_district": "7",
    "zip": "94132",
    "year": "2013",
    "lat": "37.7166731173383",
    "long": " -122.474173684903"
  },
  {
    "address": "3100 Block Of Laguna  Street",
    "date": "06/04/2012",
    "eviction_id": "M120851",
    "neighborhood": "Marina",
    "reason": "Nuisance",
    "supervisor_district": "2",
    "zip": "94123",
    "year": "2012",
    "lat": "37.8000153926556",
    "long": " -122.431093553571"
  },
  {
    "address": "100 Block Of Taylor  Street",
    "date": "06/30/2015",
    "eviction_id": "M151615",
    "neighborhood": "Tenderloin",
    "reason": "Nuisance",
    "supervisor_district": "6",
    "zip": "94102",
    "year": "2015",
    "lat": "37.7836863382486",
    "long": " -122.410789885446"
  },
  {
    "address": "1100 Block Of Market  Street",
    "date": "08/16/2012",
    "eviction_id": "M121403",
    "neighborhood": "South of Market",
    "reason": "Development",
    "supervisor_district": "6",
    "zip": "94103",
    "year": "2012",
    "lat": "37.7795310847755",
    "long": " -122.413542549251"
  },
  {
    "address": "2700 Block Of Folsom  Street",
    "date": "04/09/2015",
    "eviction_id": "M150799",
    "neighborhood": "Mission",
    "reason": "Breach",
    "supervisor_district": "9",
    "zip": "94110",
    "year": "2015",
    "lat": "37.7533065017189",
    "long": " -122.414090778467"
  },
  {
    "address": "2100 Block Of 46th  Avenue",
    "date": "08/11/2015",
    "eviction_id": "M152095",
    "neighborhood": "Sunset/Parkside",
    "reason": "Owner Move In",
    "supervisor_district": "4",
    "zip": "94116",
    "year": "2015",
    "lat": "37.7464325236755",
    "long": " -122.505019197567"
  },
  {
    "address": "1100 Block Of Market  Street",
    "date": "08/16/2012",
    "eviction_id": "M121364",
    "neighborhood": "South of Market",
    "reason": "Development",
    "supervisor_district": "6",
    "zip": "94103",
    "year": "2012",
    "lat": "37.7795310847755",
    "long": " -122.413542549251"
  },
  {
    "address": "1400 Block Of 24th  Avenue",
    "date": "11/14/2014",
    "eviction_id": "M142459",
    "neighborhood": "Sunset/Parkside",
    "reason": "Owner Move In",
    "supervisor_district": "4",
    "zip": "94122",
    "year": "2014",
    "lat": "37.760527021786",
    "long": " -122.482355707887"
  },
  {
    "address": "100 Block Of Font  Boulevard",
    "date": "04/29/2011",
    "eviction_id": "M110687",
    "neighborhood": "Lakeshore",
    "reason": "Breach",
    "supervisor_district": "7",
    "zip": "94132",
    "year": "2011",
    "lat": "37.715545052959",
    "long": " -122.473629919957"
  },
  {
    "address": "1100 Block Of De Haro  Street",
    "date": "03/02/2015",
    "eviction_id": "M150353",
    "neighborhood": "Potrero Hill",
    "reason": "Owner Move In",
    "supervisor_district": "10",
    "zip": "94107",
    "year": "2015",
    "lat": "37.7559108857717",
    "long": " -122.400678627271"
  },
  {
    "address": "600 Block Of John Muir  Drive",
    "date": "10/25/2013",
    "eviction_id": "M132181",
    "neighborhood": "Lakeshore",
    "reason": "Breach",
    "supervisor_district": "7",
    "zip": "94132",
    "year": "2013",
    "lat": "37.7143348140478",
    "long": " -122.492047872131"
  },
  {
    "address": "1300 Block Of York  Street",
    "date": "02/22/2012",
    "eviction_id": "M120041",
    "neighborhood": "Mission",
    "reason": "Owner Move In",
    "supervisor_district": "9",
    "zip": "94110",
    "year": "2012",
    "lat": "37.7504528679942",
    "long": " -122.408029580822"
  },
  {
    "address": "800 Block Of Moultrie  Street",
    "date": "03/21/2011",
    "eviction_id": "M110377",
    "neighborhood": "Bernal Heights",
    "reason": "Nuisance",
    "supervisor_district": "9",
    "zip": "94110",
    "year": "2011",
    "lat": "37.7342545738394",
    "long": " -122.416297963758"
  },
  {
    "address": "1900 Block Of Washington  Street",
    "date": "07/23/2012",
    "eviction_id": "M121108",
    "neighborhood": "Pacific Heights",
    "reason": "Breach",
    "supervisor_district": "2",
    "zip": "94109",
    "year": "2012",
    "lat": "37.7927918346358",
    "long": " -122.425348410275"
  },
  {
    "address": "3100 Block Of California  Street",
    "date": "07/09/2012",
    "eviction_id": "M120763",
    "neighborhood": "Presidio Heights",
    "reason": "Owner Move In",
    "supervisor_district": "2",
    "zip": "94115",
    "year": "2012",
    "lat": "37.787295772088",
    "long": " -122.446086570222"
  },
  {
    "address": "1600 Block Of Lombard  Street",
    "date": "10/16/2015",
    "eviction_id": "M152838",
    "neighborhood": "Marina",
    "reason": "Condo Conversion",
    "supervisor_district": "2",
    "zip": "94123",
    "year": "2015",
    "lat": "37.8008987965577",
    "long": " -122.4286710271"
  },
  {
    "address": "3100 Block Of Anza  Street",
    "date": "06/19/2013",
    "eviction_id": "M131182",
    "neighborhood": "Outer Richmond",
    "reason": "Nuisance",
    "supervisor_district": "1",
    "zip": "94121",
    "year": "2013",
    "lat": "37.7782323297794",
    "long": " -122.481912858053"
  },
  {
    "address": "230200 Block Of Anza  Street",
    "date": "07/22/2014",
    "eviction_id": "M141572",
    "neighborhood": "Lone Mountain/USF",
    "reason": "Other Cause",
    "supervisor_district": "1",
    "zip": "94118",
    "year": "2014",
    "lat": "37.7808387787668",
    "long": " -122.449570865778"
  },
  {
    "address": "100 Block Of Cook  Street",
    "date": "09/10/2012",
    "eviction_id": "M121682",
    "neighborhood": "Lone Mountain/USF",
    "reason": "Breach",
    "supervisor_district": "1",
    "zip": "94118",
    "year": "2012",
    "lat": "37.7811643494204",
    "long": " -122.452074517886"
  },
  {
    "address": "300 Block Of Hearst  Avenue",
    "date": "11/18/2013",
    "eviction_id": "M132334",
    "neighborhood": "West of Twin Peaks",
    "reason": "Nuisance",
    "supervisor_district": "7",
    "zip": "94112",
    "year": "2013",
    "lat": "37.7306488158809",
    "long": " -122.445435598834"
  },
  {
    "address": "7800 Block Of Geary  Boulevard",
    "date": "05/24/2012",
    "eviction_id": "M120814",
    "neighborhood": "Outer Richmond",
    "reason": "Breach",
    "supervisor_district": "1",
    "zip": "94121",
    "year": "2012",
    "lat": "37.7791233912401",
    "long": " -122.503472138046"
  },
  {
    "address": "1700 Block Of Larkin  Street",
    "date": "10/11/2011",
    "eviction_id": "M111687",
    "neighborhood": "Russian Hill",
    "reason": "Ellis Act WithDrawal",
    "supervisor_district": "3",
    "zip": "94109",
    "year": "2011",
    "lat": "37.7939019227131",
    "long": " -122.4197343186"
  },
  {
    "address": "500 Block Of Orizaba  Avenue",
    "date": "02/28/2012",
    "eviction_id": "M120274",
    "neighborhood": "Oceanview/Merced/Ingleside",
    "reason": "Breach",
    "supervisor_district": "11",
    "zip": "94132",
    "year": "2012",
    "lat": "37.7191067426088",
    "long": " -122.46272337727"
  },
  {
    "address": "5500 Block Of Anza  Street",
    "date": "03/27/2014",
    "eviction_id": "M140455",
    "neighborhood": "Outer Richmond",
    "reason": "Owner Move In",
    "supervisor_district": "1",
    "zip": "94121",
    "year": "2014",
    "lat": "37.7771717123496",
    "long": " -122.507631005642"
  },
  {
    "address": "100 Block Of Concord  Street",
    "date": "11/04/2013",
    "eviction_id": "M132265",
    "neighborhood": "Excelsior",
    "reason": "Ellis Act WithDrawal",
    "supervisor_district": "11",
    "zip": "94112",
    "year": "2013",
    "lat": "37.7115163704415",
    "long": " -122.44246999619"
  },
  {
    "address": "300 Block Of Teddy  Avenue",
    "date": "10/12/2012",
    "eviction_id": "M121964",
    "neighborhood": "Visitacion Valley",
    "reason": "Non Payment",
    "supervisor_district": "10",
    "zip": "94134",
    "year": "2012",
    "lat": "37.7153951684728",
    "long": " -122.409692952565"
  },
  {
    "address": "300 Block Of San Jose  Avenue",
    "date": "07/25/2013",
    "eviction_id": "M131442",
    "neighborhood": "Mission",
    "reason": "Breach",
    "supervisor_district": "8",
    "zip": "94110",
    "year": "2013",
    "lat": "37.7494022899321",
    "long": " -122.421406673002"
  },
  {
    "address": "100 Block Of Grijalva  Drive",
    "date": "12/27/2013",
    "eviction_id": "M132568",
    "neighborhood": "Lakeshore",
    "reason": "Multiple",
    "supervisor_district": "7",
    "zip": "94132",
    "year": "2013",
    "lat": "37.7157670732897",
    "long": " -122.47968096599"
  },
  {
    "address": "400 Block Of Filbert  Street",
    "date": "02/16/2011",
    "eviction_id": "M110197",
    "neighborhood": "North Beach",
    "reason": "Ellis Act WithDrawal",
    "supervisor_district": "3",
    "zip": "94133",
    "year": "2011",
    "lat": "37.8016453266517",
    "long": " -122.407626830049"
  },
  {
    "address": "3100 Block Of San Jose  Avenue",
    "date": "10/05/2011",
    "eviction_id": "M111615",
    "neighborhood": "Outer Mission",
    "reason": "Illegal Use",
    "supervisor_district": "11",
    "zip": "94112",
    "year": "2011",
    "lat": "37.7092342949464",
    "long": " -122.457902784761"
  },
  {
    "address": "1300 Block Of Thomas  Avenue",
    "date": "03/31/2011",
    "eviction_id": "M110396",
    "neighborhood": "Bayview Hunters Point",
    "reason": "Non Payment",
    "supervisor_district": "10",
    "zip": "94124",
    "year": "2011",
    "lat": "37.727718791514",
    "long": " -122.386656656073"
  },
  {
    "address": "100 Block Of Trenton  Street",
    "date": "12/13/2012",
    "eviction_id": "M122279",
    "neighborhood": "Chinatown",
    "reason": "Nuisance",
    "supervisor_district": "3",
    "zip": "94133",
    "year": "2012",
    "lat": "37.7961679771549",
    "long": " -122.409095128013"
  },
  {
    "address": "0 Block Of Cumberland  Street",
    "date": "04/22/2014",
    "eviction_id": "M140868",
    "neighborhood": "Mission",
    "reason": "Breach",
    "supervisor_district": "8",
    "zip": "94110",
    "year": "2014",
    "lat": "37.7591515867675",
    "long": " -122.424733436252"
  },
  {
    "address": "0 Block Of Corwin  Street",
    "date": "06/26/2013",
    "eviction_id": "M131213",
    "neighborhood": "Twin Peaks",
    "reason": "Breach",
    "supervisor_district": "8",
    "zip": "94114",
    "year": "2013",
    "lat": "37.7570531327791",
    "long": " -122.439618182038"
  },
  {
    "address": "800 Block Of 14th  Street",
    "date": "09/26/2011",
    "eviction_id": "M110958",
    "neighborhood": "Castro/Upper Market",
    "reason": "Owner Move In",
    "supervisor_district": "8",
    "zip": "94114",
    "year": "2011",
    "lat": "37.7675070760871",
    "long": " -122.431739942112"
  },
  {
    "address": "5800 Block Of Mission  Street",
    "date": "02/20/2013",
    "eviction_id": "M130322",
    "neighborhood": "Outer Mission",
    "reason": "Non Payment",
    "supervisor_district": "11",
    "zip": "94112",
    "year": "2013",
    "lat": "37.7091600305584",
    "long": " -122.451801431544"
  },
  {
    "address": "1400 Block Of Vallejo  Street",
    "date": "07/30/2012",
    "eviction_id": "M121179",
    "neighborhood": "Russian Hill",
    "reason": "Breach",
    "supervisor_district": "3",
    "zip": "94109",
    "year": "2012",
    "lat": "37.7969500800005",
    "long": " -122.42112794228"
  },
  {
    "address": "100 Block Of Font  Boulevard",
    "date": "04/24/2014",
    "eviction_id": "M140928",
    "neighborhood": "Lakeshore",
    "reason": "Breach",
    "supervisor_district": "7",
    "zip": "94132",
    "year": "2014",
    "lat": "37.715545052959",
    "long": " -122.473629919957"
  },
  {
    "address": "100 Block Of Albion  Street",
    "date": "03/09/2011",
    "eviction_id": "M110307",
    "neighborhood": "Mission",
    "reason": "Nuisance",
    "supervisor_district": "8",
    "zip": "94110",
    "year": "2011",
    "lat": "37.7636369577888",
    "long": " -122.422805752417"
  },
  {
    "address": "500 Block Of Pierce  Street",
    "date": "11/20/2013",
    "eviction_id": "M132343",
    "neighborhood": "Hayes Valley",
    "reason": "Breach",
    "supervisor_district": "5",
    "zip": "94117",
    "year": "2013",
    "lat": "37.7749376889187",
    "long": " -122.434457138283"
  },
  {
    "address": "200 Block Of Eureka  Street",
    "date": "11/14/2014",
    "eviction_id": "M142547",
    "neighborhood": "Castro/Upper Market",
    "reason": "Breach",
    "supervisor_district": "8",
    "zip": "94114",
    "year": "2014",
    "lat": "37.7582875285676",
    "long": " -122.438104718937"
  },
  {
    "address": "100 Block Of Seal Rock  Drive",
    "date": "10/01/2013",
    "eviction_id": "M131922",
    "neighborhood": "Lincoln Park",
    "reason": "Nuisance",
    "supervisor_district": "1",
    "zip": "94121",
    "year": "2013",
    "lat": "37.7807287079073",
    "long": " -122.508889613268"
  },
  {
    "address": "400 Block Of Noe  Street",
    "date": "09/12/2012",
    "eviction_id": "M121694",
    "neighborhood": "Castro/Upper Market",
    "reason": "Nuisance",
    "supervisor_district": "8",
    "zip": "94114",
    "year": "2012",
    "lat": "37.7614251525593",
    "long": " -122.432763470522"
  },
  {
    "address": "0 Block Of Farallones  Street",
    "date": "06/25/2014",
    "eviction_id": "M141478",
    "neighborhood": "Oceanview/Merced/Ingleside",
    "reason": "Breach",
    "supervisor_district": "11",
    "zip": "94112",
    "year": "2014",
    "lat": "37.7140353528254",
    "long": " -122.454117149493"
  },
  {
    "address": "700 Block Of Gonzalez  Drive",
    "date": "03/20/2015",
    "eviction_id": "M150545",
    "neighborhood": "Lakeshore",
    "reason": "Nuisance",
    "supervisor_district": "7",
    "zip": "94132",
    "year": "2015",
    "lat": "37.7175134680329",
    "long": " -122.48059457481"
  },
  {
    "address": "200 Block Of Cardenas  Avenue",
    "date": "03/13/2015",
    "eviction_id": "M150523",
    "neighborhood": "Lakeshore",
    "reason": "Breach",
    "supervisor_district": "7",
    "zip": "94132",
    "year": "2015",
    "lat": "37.7191434664513",
    "long": " -122.475982335074"
  },
  {
    "address": "1000 Block Of Silver  Avenue",
    "date": "09/30/2015",
    "eviction_id": "M152685",
    "neighborhood": "Excelsior",
    "reason": "Non Payment",
    "supervisor_district": "9",
    "zip": "94134",
    "year": "2015",
    "lat": "37.7290199100219",
    "long": " -122.415658435184"
  },
  {
    "address": "1200 Block Of Green  Street",
    "date": "01/06/2014",
    "eviction_id": "M140039",
    "neighborhood": "Russian Hill",
    "reason": "Non Payment",
    "supervisor_district": "3",
    "zip": "94109",
    "year": "2014",
    "lat": "37.798149290601",
    "long": " -122.420211765474"
  },
  {
    "address": "200 Block Of Mcallister  Street",
    "date": "09/19/2014",
    "eviction_id": "M142141",
    "neighborhood": "Tenderloin",
    "reason": "Non Payment",
    "supervisor_district": "6",
    "zip": "94102",
    "year": "2014",
    "lat": "37.7807213121407",
    "long": " -122.415737767422"
  },
  {
    "address": "201200 Block Of 9th  Street",
    "date": "04/09/2014",
    "eviction_id": "M140721",
    "neighborhood": "South of Market",
    "reason": "Breach",
    "supervisor_district": "6",
    "zip": "94103",
    "year": "2014",
    "lat": "37.774817064227",
    "long": " -122.412845031059"
  },
  {
    "address": "3500 Block Of San Bruno  Avenue",
    "date": "06/19/2014",
    "eviction_id": "M141376",
    "neighborhood": "Visitacion Valley",
    "reason": "Non Payment",
    "supervisor_district": "10",
    "zip": "94134",
    "year": "2014",
    "lat": "37.7170202515131",
    "long": " -122.399987919814"
  },
  {
    "address": "800 Block Of Turk  Street",
    "date": "03/20/2013",
    "eviction_id": "M130470",
    "neighborhood": "Western Addition",
    "reason": "Nuisance",
    "supervisor_district": "5",
    "zip": "94102",
    "year": "2013",
    "lat": "37.7815854030908",
    "long": " -122.423090189161"
  },
  {
    "address": "2800 Block Of Folsom  Street",
    "date": "12/16/2013",
    "eviction_id": "M132532",
    "neighborhood": "Mission",
    "reason": "Ellis Act WithDrawal",
    "supervisor_district": "9",
    "zip": "94110",
    "year": "2013",
    "lat": "37.7517086694029",
    "long": " -122.41393694174"
  },
  {
    "address": "3100 Block Of San Jose  Avenue",
    "date": "10/05/2011",
    "eviction_id": "M111614",
    "neighborhood": "Outer Mission",
    "reason": "Illegal Use",
    "supervisor_district": "11",
    "zip": "94112",
    "year": "2011",
    "lat": "37.7092342949464",
    "long": " -122.457902784761"
  },
  {
    "address": "1600 Block Of Haight  Street",
    "date": "04/01/2011",
    "eviction_id": "M110572",
    "neighborhood": "Haight Ashbury",
    "reason": "Nuisance",
    "supervisor_district": "5",
    "zip": "94117",
    "year": "2011",
    "lat": "37.7697840923802",
    "long": " -122.449122961204"
  },
  {
    "address": "600 Block Of Spruce  Street",
    "date": "08/08/2013",
    "eviction_id": "M131562",
    "neighborhood": "Presidio Heights",
    "reason": "Breach",
    "supervisor_district": "2",
    "zip": "94118",
    "year": "2013",
    "lat": "37.7828772928678",
    "long": " -122.453478866439"
  },
  {
    "address": "1800 Block Of Alemany  Boulevard",
    "date": "10/16/2013",
    "eviction_id": "M132028",
    "neighborhood": "Outer Mission",
    "reason": "Owner Move In",
    "supervisor_district": "11",
    "zip": "94112",
    "year": "2013",
    "lat": "37.7227071920378",
    "long": " -122.438130196178"
  },
  {
    "address": "100 Block Of Eugenia  Street",
    "date": "09/05/2014",
    "eviction_id": "M141780",
    "neighborhood": "",
    "reason": "Owner Move In",
    "supervisor_district": "",
    "zip": "94110",
    "year": "2014",
    "lat": "",
    "long": ""
  },
  {
    "address": "700 Block Of 6th  Avenue",
    "date": "11/03/2014",
    "eviction_id": "M142447",
    "neighborhood": "Inner Richmond",
    "reason": "Owner Move In",
    "supervisor_district": "1",
    "zip": "94118",
    "year": "2014",
    "lat": "37.7744933639031",
    "long": " -122.463881451138"
  },
  {
    "address": "100 Block Of Downey  Street",
    "date": "03/19/2014",
    "eviction_id": "M140656",
    "neighborhood": "Haight Ashbury",
    "reason": "Ellis Act WithDrawal",
    "supervisor_district": "5",
    "zip": "94117",
    "year": "2014",
    "lat": "37.7654182578924",
    "long": " -122.446783639096"
  },
  {
    "address": "400 Block Of Eddy  Street",
    "date": "09/05/2014",
    "eviction_id": "M141994",
    "neighborhood": "Tenderloin",
    "reason": "Breach",
    "supervisor_district": "6",
    "zip": "94102",
    "year": "2014",
    "lat": "37.7835654759009",
    "long": " -122.415051136713"
  },
  {
    "address": "0 Block Of Concord  Street",
    "date": "01/07/2013",
    "eviction_id": "M130054",
    "neighborhood": "Excelsior",
    "reason": "Non Payment",
    "supervisor_district": "11",
    "zip": "94112",
    "year": "2013",
    "lat": "37.7127395196542",
    "long": " -122.442907764013"
  },
  {
    "address": "100 Block Of Font  Boulevard",
    "date": "06/15/2011",
    "eviction_id": "M111006",
    "neighborhood": "Lakeshore",
    "reason": "Breach",
    "supervisor_district": "7",
    "zip": "94132",
    "year": "2011",
    "lat": "37.715545052959",
    "long": " -122.473629919957"
  },
  {
    "address": "400 Block Of Broadway  Street",
    "date": "06/11/2015",
    "eviction_id": "M151412",
    "neighborhood": "",
    "reason": "Owner Move In",
    "supervisor_district": "",
    "zip": "94133",
    "year": "2015",
    "lat": "",
    "long": ""
  },
  {
    "address": "1100 Block Of California  Street",
    "date": "06/30/2015",
    "eviction_id": "M151616",
    "neighborhood": "Nob Hill",
    "reason": "Owner Move In",
    "supervisor_district": "3",
    "zip": "94108",
    "year": "2015",
    "lat": "37.7914675528315",
    "long": " -122.413273080076"
  },
  {
    "address": "1400 Block Of Thomas  Avenue",
    "date": "07/10/2014",
    "eviction_id": "M141329",
    "neighborhood": "Bayview Hunters Point",
    "reason": "Owner Move In",
    "supervisor_district": "10",
    "zip": "94124",
    "year": "2014",
    "lat": "37.728779119582",
    "long": " -122.388524913954"
  },
  {
    "address": "1400 Block Of 5th  Avenue",
    "date": "10/14/2011",
    "eviction_id": "M110963",
    "neighborhood": "Inner Sunset",
    "reason": "Owner Move In",
    "supervisor_district": "5",
    "zip": "94122",
    "year": "2011",
    "lat": "37.761427941762",
    "long": " -122.461904465239"
  },
  {
    "address": "600 Block Of Valencia  Street",
    "date": "03/21/2014",
    "eviction_id": "M140586",
    "neighborhood": "Mission",
    "reason": "Breach",
    "supervisor_district": "8",
    "zip": "94110",
    "year": "2014",
    "lat": "37.7621357068395",
    "long": " -122.421689427235"
  },
  {
    "address": "1700 Block Of 7th  Avenue",
    "date": "09/07/2012",
    "eviction_id": "M121571",
    "neighborhood": "Inner Sunset",
    "reason": "Owner Move In",
    "supervisor_district": "7",
    "zip": "94122",
    "year": "2012",
    "lat": "37.7557715404481",
    "long": " -122.463657106015"
  },
  {
    "address": "3100 Block Of 16th  Street",
    "date": "11/21/2011",
    "eviction_id": "M111926",
    "neighborhood": "Mission",
    "reason": "Breach",
    "supervisor_district": "8",
    "zip": "94103",
    "year": "2011",
    "lat": "37.7649429347769",
    "long": " -122.422375182218"
  },
  {
    "address": "800 Block Of Guerrero  Street",
    "date": "05/31/2012",
    "eviction_id": "M120745",
    "neighborhood": "Mission",
    "reason": "Owner Move In",
    "supervisor_district": "8",
    "zip": "94110",
    "year": "2012",
    "lat": "37.7579622840279",
    "long": " -122.423559852269"
  },
  {
    "address": "1700 Block Of 20th  Avenue",
    "date": "03/08/2011",
    "eviction_id": "M110302",
    "neighborhood": "Sunset/Parkside",
    "reason": "Non Payment",
    "supervisor_district": "4",
    "zip": "94122",
    "year": "2011",
    "lat": "37.7551297159093",
    "long": " -122.477545283967"
  },
  {
    "address": "1000 Block Of Golden Gate  Avenue",
    "date": "03/16/2011",
    "eviction_id": "M110325",
    "neighborhood": "Western Addition",
    "reason": "Breach",
    "supervisor_district": "5",
    "zip": "94115",
    "year": "2011",
    "lat": "37.7800421535619",
    "long": " -122.428635981426"
  },
  {
    "address": "0 Block Of Emery  Lane",
    "date": "01/21/2015",
    "eviction_id": "M150175",
    "neighborhood": "Chinatown",
    "reason": "Breach",
    "supervisor_district": "3",
    "zip": "94133",
    "year": "2015",
    "lat": "37.7987139952379",
    "long": " -122.409618331128"
  },
  {
    "address": "3000 Block Of Pierce  Street",
    "date": "08/20/2014",
    "eviction_id": "M141848",
    "neighborhood": "Marina",
    "reason": "Other Cause",
    "supervisor_district": "2",
    "zip": "94123",
    "year": "2014",
    "lat": "37.7980766454995",
    "long": " -122.438993733709"
  },
  {
    "address": "1200 Block Of Laguna  Street",
    "date": "08/12/2011",
    "eviction_id": "M111306",
    "neighborhood": "Western Addition",
    "reason": "Nuisance",
    "supervisor_district": "5",
    "zip": "94115",
    "year": "2011",
    "lat": "37.782281261648",
    "long": " -122.427511862791"
  },
  {
    "address": "300 Block Of Franconia  Street",
    "date": "10/13/2015",
    "eviction_id": "M152793",
    "neighborhood": "Bernal Heights",
    "reason": "Breach",
    "supervisor_district": "9",
    "zip": "94110",
    "year": "2015",
    "lat": "37.7446298324614",
    "long": " -122.407628266868"
  },
  {
    "address": "400 Block Of 12th  Avenue",
    "date": "02/11/2013",
    "eviction_id": "M130232",
    "neighborhood": "Inner Richmond",
    "reason": "Demolition",
    "supervisor_district": "1",
    "zip": "94118",
    "year": "2013",
    "lat": "37.779765356572",
    "long": " -122.470573109145"
  },
  {
    "address": "0 Block Of Gold Mine  Drive",
    "date": "11/22/2011",
    "eviction_id": "M111939",
    "neighborhood": "Noe Valley",
    "reason": "Breach",
    "supervisor_district": "8",
    "zip": "94131",
    "year": "2011",
    "lat": "37.7438135297475",
    "long": " -122.4371955331"
  },
  {
    "address": "1500 Block Of 24th  Avenue",
    "date": "03/29/2012",
    "eviction_id": "M120434",
    "neighborhood": "Sunset/Parkside",
    "reason": "Breach",
    "supervisor_district": "4",
    "zip": "94122",
    "year": "2012",
    "lat": "37.7586664208599",
    "long": " -122.482086758198"
  },
  {
    "address": "700 Block Of Commercial  Street",
    "date": "09/25/2015",
    "eviction_id": "M152617",
    "neighborhood": "Chinatown",
    "reason": "Late Payments",
    "supervisor_district": "3",
    "zip": "94108",
    "year": "2015",
    "lat": "37.7939808200789",
    "long": " -122.405476353554"
  },
  {
    "address": "0 Block Of Ottawa  Avenue",
    "date": "11/06/2015",
    "eviction_id": "M153111",
    "neighborhood": "Outer Mission",
    "reason": "Owner Move In",
    "supervisor_district": "11",
    "zip": "94112",
    "year": "2015",
    "lat": "37.7148230229227",
    "long": " -122.445340008951"
  },
  {
    "address": "100 Block Of Tapia  Drive",
    "date": "08/12/2011",
    "eviction_id": "M111341",
    "neighborhood": "",
    "reason": "Breach",
    "supervisor_district": "",
    "zip": "941",
    "year": "2011",
    "lat": "",
    "long": ""
  },
  {
    "address": "200 Block Of Anderson  Street",
    "date": "10/09/2013",
    "eviction_id": "M131697",
    "neighborhood": "Bernal Heights",
    "reason": "Owner Move In",
    "supervisor_district": "9",
    "zip": "94110",
    "year": "2013",
    "lat": "37.7396333441044",
    "long": " -122.415157998851"
  },
  {
    "address": "3000 Block Of 22nd  Street",
    "date": "03/21/2011",
    "eviction_id": "M110381",
    "neighborhood": "Mission",
    "reason": "Unapproved Subtenant",
    "supervisor_district": "9",
    "zip": "94110",
    "year": "2011",
    "lat": "37.7556120186685",
    "long": " -122.414925209206"
  },
  {
    "address": "0 Block Of Ervine  Street",
    "date": "02/14/2013",
    "eviction_id": "M130256",
    "neighborhood": "Visitacion Valley",
    "reason": "Nuisance",
    "supervisor_district": "10",
    "zip": "94134",
    "year": "2013",
    "lat": "37.7162746921711",
    "long": " -122.409101684925"
  },
  {
    "address": "1500 Block Of Clay  Street",
    "date": "09/26/2012",
    "eviction_id": "M121852",
    "neighborhood": "Nob Hill",
    "reason": "Breach",
    "supervisor_district": "3",
    "zip": "94109",
    "year": "2012",
    "lat": "37.7926970178494",
    "long": " -122.418156901181"
  },
  {
    "address": "1100 Block Of Lake  Street",
    "date": "05/12/2014",
    "eviction_id": "M141079",
    "neighborhood": "Inner Richmond",
    "reason": "Breach",
    "supervisor_district": "2",
    "zip": "94118",
    "year": "2014",
    "lat": "37.7864151876496",
    "long": " -122.471654339002"
  },
  {
    "address": "300 Block Of 16th  Avenue",
    "date": "02/26/2014",
    "eviction_id": "M140393",
    "neighborhood": "Outer Richmond",
    "reason": "Late Payments",
    "supervisor_district": "1",
    "zip": "94118",
    "year": "2014",
    "lat": "37.7814963325166",
    "long": " -122.475090529433"
  },
  {
    "address": "1400 Block Of Oakdale  Street",
    "date": "06/03/2014",
    "eviction_id": "M141283",
    "neighborhood": "",
    "reason": "Nuisance",
    "supervisor_district": "",
    "zip": "94124",
    "year": "2014",
    "lat": "",
    "long": ""
  },
  {
    "address": "100 Block Of College  Avenue",
    "date": "03/04/2013",
    "eviction_id": "M130370",
    "neighborhood": "Bernal Heights",
    "reason": "Demolition",
    "supervisor_district": "8",
    "zip": "94122",
    "year": "2013",
    "lat": "37.7353484508959",
    "long": " -122.426495414062"
  },
  {
    "address": "1900 Block Of Green  Street",
    "date": "07/13/2015",
    "eviction_id": "M151739",
    "neighborhood": "Marina",
    "reason": "Breach",
    "supervisor_district": "2",
    "zip": "94123",
    "year": "2015",
    "lat": "37.796624769733",
    "long": " -122.431182320541"
  },
  {
    "address": "1100 Block Of Mission  Street",
    "date": "10/30/2013",
    "eviction_id": "M132238",
    "neighborhood": "South of Market",
    "reason": "Breach",
    "supervisor_district": "6",
    "zip": "94103",
    "year": "2013",
    "lat": "37.7777903091017",
    "long": " -122.412834332583"
  },
  {
    "address": "1400 Block Of 20th  Avenue",
    "date": "06/19/2012",
    "eviction_id": "M120919",
    "neighborhood": "Sunset/Parkside",
    "reason": "Breach",
    "supervisor_district": "4",
    "zip": "94122",
    "year": "2012",
    "lat": "37.7607159070332",
    "long": " -122.478068414559"
  },
  {
    "address": "700 Block Of Bush  Street",
    "date": "01/28/2013",
    "eviction_id": "M130168",
    "neighborhood": "Nob Hill",
    "reason": "Nuisance",
    "supervisor_district": "3",
    "zip": "94108",
    "year": "2013",
    "lat": "37.7900012213154",
    "long": " -122.409598797149"
  },
  {
    "address": "700 Block Of Guerrero  Street",
    "date": "12/04/2014",
    "eviction_id": "M142650",
    "neighborhood": "Mission",
    "reason": "Breach",
    "supervisor_district": "8",
    "zip": "94110",
    "year": "2014",
    "lat": "37.7595636302487",
    "long": " -122.42372058615"
  },
  {
    "address": "2300 Block Of 27th  Avenue",
    "date": "09/11/2014",
    "eviction_id": "M141785",
    "neighborhood": "Sunset/Parkside",
    "reason": "Owner Move In",
    "supervisor_district": "4",
    "zip": "94116",
    "year": "2014",
    "lat": "37.7436034504412",
    "long": " -122.484398290433"
  },
  {
    "address": "1300 Block Of Green  Street",
    "date": "03/18/2013",
    "eviction_id": "M130458",
    "neighborhood": "Russian Hill",
    "reason": "Roommate Same Unit",
    "supervisor_district": "3",
    "zip": "94109",
    "year": "2013",
    "lat": "37.7979834491896",
    "long": " -122.421335440787"
  },
  {
    "address": "1500 Block Of Oak  Street",
    "date": "05/18/2015",
    "eviction_id": "M151219",
    "neighborhood": "Haight Ashbury",
    "reason": "Breach",
    "supervisor_district": "5",
    "zip": "94117",
    "year": "2015",
    "lat": "37.7721336075263",
    "long": " -122.444859556269"
  },
  {
    "address": "100 Block Of Bartlett  Street",
    "date": "02/17/2015",
    "eviction_id": "M150280",
    "neighborhood": "Mission",
    "reason": "Breach",
    "supervisor_district": "9",
    "zip": "94110",
    "year": "2015",
    "lat": "37.7545718706336",
    "long": " -122.419712713805"
  },
  {
    "address": "4400 Block Of Balboa  Street",
    "date": "08/11/2014",
    "eviction_id": "M141756",
    "neighborhood": "Outer Richmond",
    "reason": "Owner Move In",
    "supervisor_district": "1",
    "zip": "94121",
    "year": "2014",
    "lat": "37.7752442169305",
    "long": " -122.506416834659"
  },
  {
    "address": "3200 Block Of Clement  Street",
    "date": "01/26/2012",
    "eviction_id": "M120122",
    "neighborhood": "Outer Richmond",
    "reason": "Unapproved Subtenant",
    "supervisor_district": "1",
    "zip": "94121",
    "year": "2012",
    "lat": "37.7815474351503",
    "long": " -122.493978997717"
  },
  {
    "address": "500 Block Of John Muir  Drive",
    "date": "09/30/2013",
    "eviction_id": "M131918",
    "neighborhood": "Lakeshore",
    "reason": "Breach",
    "supervisor_district": "7",
    "zip": "94132",
    "year": "2013",
    "lat": "37.7143348140478",
    "long": " -122.492047872131"
  },
  {
    "address": "4200 Block Of Mission  Street",
    "date": "10/04/2011",
    "eviction_id": "M111608",
    "neighborhood": "Outer Mission",
    "reason": "Nuisance",
    "supervisor_district": "11",
    "zip": "94112",
    "year": "2011",
    "lat": "37.7295968082488",
    "long": " -122.43058190419"
  },
  {
    "address": "300 Block Of 22nd  Avenue",
    "date": "10/02/2013",
    "eviction_id": "M131928",
    "neighborhood": "Outer Richmond",
    "reason": "Multiple",
    "supervisor_district": "1",
    "zip": "94121",
    "year": "2013",
    "lat": "37.7811963632277",
    "long": " -122.481518721615"
  },
  {
    "address": "0 Block Of Belcher  Street",
    "date": "07/12/2013",
    "eviction_id": "M131317",
    "neighborhood": "Castro/Upper Market",
    "reason": "Ellis Act WithDrawal",
    "supervisor_district": "8",
    "zip": "94114",
    "year": "2013",
    "lat": "37.7685230217646",
    "long": " -122.430233400954"
  },
  {
    "address": "700 Block Of Barneveld  Avenue",
    "date": "05/09/2013",
    "eviction_id": "M130835",
    "neighborhood": "Portola",
    "reason": "Nuisance",
    "supervisor_district": "9",
    "zip": "94134",
    "year": "2013",
    "lat": "37.7340230604201",
    "long": " -122.407626522221"
  },
  {
    "address": "200 Block Of Font  Boulevard",
    "date": "09/23/2011",
    "eviction_id": "M111567",
    "neighborhood": "Lakeshore",
    "reason": "Breach",
    "supervisor_district": "7",
    "zip": "94132",
    "year": "2011",
    "lat": "37.7162490965836",
    "long": " -122.475270754393"
  },
  {
    "address": "300 Block Of 5th  Avenue",
    "date": "08/08/2013",
    "eviction_id": "M131557",
    "neighborhood": "Inner Richmond",
    "reason": "Breach",
    "supervisor_district": "1",
    "zip": "94118",
    "year": "2013",
    "lat": "37.7820265124035",
    "long": " -122.463349690248"
  },
  {
    "address": "1600 Block Of Ocean  Avenue",
    "date": "03/24/2015",
    "eviction_id": "M150579",
    "neighborhood": "Oceanview/Merced/Ingleside",
    "reason": "Demolition",
    "supervisor_district": "7",
    "zip": "94112",
    "year": "2015",
    "lat": "37.72453178495",
    "long": " -122.459610061546"
  },
  {
    "address": "2000 Block Of Broadway  Street",
    "date": "05/24/2013",
    "eviction_id": "M130980",
    "neighborhood": "",
    "reason": "Breach",
    "supervisor_district": "",
    "zip": "94115",
    "year": "2013",
    "lat": "",
    "long": ""
  },
  {
    "address": "3400 Block Of 21st  Street",
    "date": "04/28/2015",
    "eviction_id": "M151050",
    "neighborhood": "Mission",
    "reason": "Ellis Act WithDrawal",
    "supervisor_district": "8",
    "zip": "94110",
    "year": "2015",
    "lat": "37.7567725308728",
    "long": " -122.424183166506"
  },
  {
    "address": "2800 Block Of 23rd  Street",
    "date": "09/13/2013",
    "eviction_id": "M131827",
    "neighborhood": "Mission",
    "reason": "Ellis Act WithDrawal",
    "supervisor_district": "9",
    "zip": "94110",
    "year": "2013",
    "lat": "37.7544242919275",
    "long": " -122.409741838392"
  },
  {
    "address": "700 Block Of Hayes  Street",
    "date": "01/16/2015",
    "eviction_id": "M150162",
    "neighborhood": "Hayes Valley",
    "reason": "Multiple",
    "supervisor_district": "5",
    "zip": "94102",
    "year": "2015",
    "lat": "37.7762032094245",
    "long": " -122.428744875404"
  },
  {
    "address": "4400 Block Of Fulton  Street",
    "date": "04/12/2011",
    "eviction_id": "M110601",
    "neighborhood": "Outer Richmond",
    "reason": "Multiple",
    "supervisor_district": "1",
    "zip": "94121",
    "year": "2011",
    "lat": "37.7728449107207",
    "long": " -122.479374759179"
  },
  {
    "address": "0 Block Of Franklin  Street",
    "date": "06/13/2011",
    "eviction_id": "M110982",
    "neighborhood": "Hayes Valley",
    "reason": "Breach",
    "supervisor_district": "5",
    "zip": "94102",
    "year": "2011",
    "lat": "37.7745362768202",
    "long": " -122.420741294502"
  },
  {
    "address": "800 Block Of Church  Street",
    "date": "03/22/2011",
    "eviction_id": "M110373",
    "neighborhood": "Castro/Upper Market",
    "reason": "Breach",
    "supervisor_district": "8",
    "zip": "94114",
    "year": "2011",
    "lat": "37.7576948951015",
    "long": " -122.427940934071"
  },
  {
    "address": "1000 Block Of Judah  Street",
    "date": "03/17/2014",
    "eviction_id": "M140563",
    "neighborhood": "Inner Sunset",
    "reason": "Late Payments",
    "supervisor_district": "5",
    "zip": "94122",
    "year": "2014",
    "lat": "37.7619618132135",
    "long": " -122.473230044918"
  },
  {
    "address": "0 Block Of Pinto  Avenue",
    "date": "09/22/2011",
    "eviction_id": "M111554",
    "neighborhood": "Lakeshore",
    "reason": "Breach",
    "supervisor_district": "7",
    "zip": "94132",
    "year": "2011",
    "lat": "37.72036960153",
    "long": " -122.482187237029"
  },
  {
    "address": "1500 Block Of Innes  Street",
    "date": "09/18/2014",
    "eviction_id": "M142136",
    "neighborhood": "",
    "reason": "Non Payment",
    "supervisor_district": "",
    "zip": "94124",
    "year": "2014",
    "lat": "",
    "long": ""
  },
  {
    "address": "100 Block Of Duboce  Avenue",
    "date": "10/07/2015",
    "eviction_id": "M152768",
    "neighborhood": "Mission",
    "reason": "Capital Improvement",
    "supervisor_district": "8",
    "zip": "94103",
    "year": "2015",
    "lat": "37.7698122626962",
    "long": " -122.424206499779"
  },
  {
    "address": "600 Block Of Grand View  Avenue",
    "date": "01/03/2014",
    "eviction_id": "M140036",
    "neighborhood": "Noe Valley",
    "reason": "Breach",
    "supervisor_district": "8",
    "zip": "94114",
    "year": "2014",
    "lat": "37.749965679105",
    "long": " -122.442719819909"
  },
  {
    "address": "400 Block Of Ellis  Street",
    "date": "07/22/2014",
    "eviction_id": "M141571",
    "neighborhood": "Tenderloin",
    "reason": "Nuisance",
    "supervisor_district": "6",
    "zip": "94102",
    "year": "2014",
    "lat": "37.7846989219768",
    "long": " -122.413593512911"
  },
  {
    "address": "2400 Block Of 34th  Avenue",
    "date": "10/28/2013",
    "eviction_id": "M132222",
    "neighborhood": "Sunset/Parkside",
    "reason": "Breach",
    "supervisor_district": "4",
    "zip": "94116",
    "year": "2013",
    "lat": "37.7414055933385",
    "long": " -122.491770472649"
  },
  {
    "address": "2400 Block Of Uniion  Street",
    "date": "10/27/2011",
    "eviction_id": "M111772",
    "neighborhood": "Marina",
    "reason": "Breach",
    "supervisor_district": "2",
    "zip": "94123",
    "year": "2011",
    "lat": "37.796511711352",
    "long": " -122.439589612888"
  },
  {
    "address": "1100 Block Of Mission  Street",
    "date": "06/09/2014",
    "eviction_id": "M141224",
    "neighborhood": "South of Market",
    "reason": "Breach",
    "supervisor_district": "6",
    "zip": "94103",
    "year": "2014",
    "lat": "37.7777903091017",
    "long": " -122.412834332583"
  },
  {
    "address": "1100 Block Of Market  Street",
    "date": "08/16/2012",
    "eviction_id": "M121336",
    "neighborhood": "South of Market",
    "reason": "Development",
    "supervisor_district": "6",
    "zip": "94103",
    "year": "2012",
    "lat": "37.7795310847755",
    "long": " -122.413542549251"
  },
  {
    "address": "200 Block Of Crescent  Avenue",
    "date": "06/27/2011",
    "eviction_id": "M111075",
    "neighborhood": "Bernal Heights",
    "reason": "Breach",
    "supervisor_district": "9",
    "zip": "94110",
    "year": "2011",
    "lat": "37.7350600926826",
    "long": " -122.419161089293"
  },
  {
    "address": "200 Block Of North Point  Street",
    "date": "11/28/2012",
    "eviction_id": "M122217",
    "neighborhood": "North Beach",
    "reason": "Multiple",
    "supervisor_district": "3",
    "zip": "94133",
    "year": "2012",
    "lat": "37.8068062375875",
    "long": " -122.411308750781"
  },
  {
    "address": "0 Block Of Bannam  Place",
    "date": "04/16/2012",
    "eviction_id": "M120574",
    "neighborhood": "North Beach",
    "reason": "Breach",
    "supervisor_district": "3",
    "zip": "94133",
    "year": "2012",
    "lat": "37.8002556030234",
    "long": " -122.407754428433"
  },
  {
    "address": "800 Block Of Pine  Street",
    "date": "07/15/2015",
    "eviction_id": "M151818",
    "neighborhood": "Nob Hill",
    "reason": "Breach",
    "supervisor_district": "3",
    "zip": "94108",
    "year": "2015",
    "lat": "37.7909306098255",
    "long": " -122.409788680072"
  },
  {
    "address": "0 Block Of Jersey  Street",
    "date": "03/14/2014",
    "eviction_id": "M140561",
    "neighborhood": "Noe Valley",
    "reason": "Nuisance",
    "supervisor_district": "8",
    "zip": "94114",
    "year": "2014",
    "lat": "37.7508743760374",
    "long": " -122.42679745899"
  },
  {
    "address": "2100 Block Of Taylor  Street",
    "date": "10/04/2012",
    "eviction_id": "M121909",
    "neighborhood": "Russian Hill",
    "reason": "Breach",
    "supervisor_district": "3",
    "zip": "94133",
    "year": "2012",
    "lat": "37.8021635807448",
    "long": " -122.414518424685"
  },
  {
    "address": "1500 Block Of 38th  Avenue",
    "date": "11/30/2015",
    "eviction_id": "M153273",
    "neighborhood": "Sunset/Parkside",
    "reason": "Roommate Same Unit",
    "supervisor_district": "4",
    "zip": "94122",
    "year": "2015",
    "lat": "37.7579990166072",
    "long": " -122.497225470532"
  },
  {
    "address": "1700 Block Of Mckinnon  Avenue",
    "date": "07/15/2013",
    "eviction_id": "M131323",
    "neighborhood": "Bayview Hunters Point",
    "reason": "Nuisance",
    "supervisor_district": "10",
    "zip": "94124",
    "year": "2013",
    "lat": "37.7374788312449",
    "long": " -122.391986352944"
  },
  {
    "address": "2900 Block Of Harrison  Street",
    "date": "10/26/2015",
    "eviction_id": "M152931",
    "neighborhood": "Mission",
    "reason": "Breach",
    "supervisor_district": "9",
    "zip": "94110",
    "year": "2015",
    "lat": "37.7502392381747",
    "long": " -122.41160055919"
  },
  {
    "address": "1000 Block Of Market  Street",
    "date": "10/07/2013",
    "eviction_id": "M131986",
    "neighborhood": "South of Market",
    "reason": "Demolition",
    "supervisor_district": "6",
    "zip": "94103",
    "year": "2013",
    "lat": "37.7812876875414",
    "long": " -122.411318055944"
  },
  {
    "address": "0 Block Of Rico  Way",
    "date": "05/03/2012",
    "eviction_id": "M120693",
    "neighborhood": "Marina",
    "reason": "Ellis Act WithDrawal",
    "supervisor_district": "2",
    "zip": "94123",
    "year": "2012",
    "lat": "37.8049162174513",
    "long": " -122.439357684167"
  },
  {
    "address": "0 Block Of Brosnan  Street",
    "date": "10/03/2013",
    "eviction_id": "M131949",
    "neighborhood": "Mission",
    "reason": "Breach",
    "supervisor_district": "8",
    "zip": "94103",
    "year": "2013",
    "lat": "37.7686369522646",
    "long": " -122.423336149769"
  },
  {
    "address": "2300 Block Of 34th  Avenue",
    "date": "08/14/2015",
    "eviction_id": "M152150",
    "neighborhood": "Sunset/Parkside",
    "reason": "Other Cause",
    "supervisor_district": "4",
    "zip": "94122",
    "year": "2015",
    "lat": "37.7432731432654",
    "long": " -122.491903374853"
  },
  {
    "address": "300 Block Of Turk  Street",
    "date": "12/23/2014",
    "eviction_id": "M142748",
    "neighborhood": "Tenderloin",
    "reason": "Nuisance",
    "supervisor_district": "6",
    "zip": "94102",
    "year": "2014",
    "lat": "37.7826355122089",
    "long": " -122.414862827874"
  },
  {
    "address": "1700 Block Of Stockton  Street",
    "date": "02/07/2012",
    "eviction_id": "M120162",
    "neighborhood": "North Beach",
    "reason": "Breach",
    "supervisor_district": "3",
    "zip": "94133",
    "year": "2012",
    "lat": "37.8018276951213",
    "long": " -122.409533528784"
  },
  {
    "address": "1900 Block Of Cabrillo  Street",
    "date": "03/02/2015",
    "eviction_id": "M150433",
    "neighborhood": "Outer Richmond",
    "reason": "Demolition",
    "supervisor_district": "1",
    "zip": "94121",
    "year": "2015",
    "lat": "37.7747115605456",
    "long": " -122.479509827867"
  },
  {
    "address": "3600 Block Of Clay  Street",
    "date": "02/27/2014",
    "eviction_id": "M140422",
    "neighborhood": "Presidio Heights",
    "reason": "Nuisance",
    "supervisor_district": "2",
    "zip": "94118",
    "year": "2014",
    "lat": "37.7882786695049",
    "long": " -122.452936734544"
  },
  {
    "address": "1000 Block Of Post  Street",
    "date": "10/19/2015",
    "eviction_id": "M152859",
    "neighborhood": "Tenderloin",
    "reason": "Breach",
    "supervisor_district": "6",
    "zip": "94109",
    "year": "2015",
    "lat": "37.7868785026124",
    "long": " -122.419088531076"
  },
  {
    "address": "400 Block Of Rolph  Street",
    "date": "10/05/2015",
    "eviction_id": "M152699",
    "neighborhood": "Excelsior",
    "reason": "Nuisance",
    "supervisor_district": "11",
    "zip": "94112",
    "year": "2015",
    "lat": "37.7123368697164",
    "long": " -122.43379615648"
  },
  {
    "address": "400 Block Of Burnett  Avenue",
    "date": "01/28/2015",
    "eviction_id": "M150215",
    "neighborhood": "Twin Peaks",
    "reason": "Breach",
    "supervisor_district": "8",
    "zip": "94131",
    "year": "2015",
    "lat": "37.7536245143715",
    "long": " -122.444230812208"
  },
  {
    "address": "500 Block Of 4th  Street",
    "date": "03/10/2014",
    "eviction_id": "M140535",
    "neighborhood": "South of Market",
    "reason": "Breach",
    "supervisor_district": "6",
    "zip": "94107",
    "year": "2014",
    "lat": "37.7793117070851",
    "long": " -122.397849560791"
  },
  {
    "address": "1100 Block Of Market  Street",
    "date": "08/16/2012",
    "eviction_id": "M121435",
    "neighborhood": "South of Market",
    "reason": "Development",
    "supervisor_district": "6",
    "zip": "94103",
    "year": "2012",
    "lat": "37.7795310847755",
    "long": " -122.413542549251"
  },
  {
    "address": "200 Block Of Lee  Avenue",
    "date": "05/04/2011",
    "eviction_id": "M110226",
    "neighborhood": "Oceanview/Merced/Ingleside",
    "reason": "Owner Move In",
    "supervisor_district": "7",
    "zip": "94112",
    "year": "2011",
    "lat": "37.7226544397232",
    "long": " -122.454042001601"
  },
  {
    "address": "400 Block Of Berry  Street",
    "date": "04/09/2012",
    "eviction_id": "M120515",
    "neighborhood": "Mission Bay",
    "reason": "Nuisance",
    "supervisor_district": "6",
    "zip": "94107",
    "year": "2012",
    "lat": "37.7720335036908",
    "long": " -122.39820071407"
  },
  {
    "address": "1600 Block Of 45th  Avenue",
    "date": "05/27/2015",
    "eviction_id": "M151314",
    "neighborhood": "Sunset/Parkside",
    "reason": "Owner Move In",
    "supervisor_district": "4",
    "zip": "94122",
    "year": "2015",
    "lat": "37.7558064161714",
    "long": " -122.504597712863"
  },
  {
    "address": "200 Block Of Whitney  Street",
    "date": "01/05/2011",
    "eviction_id": "M110006",
    "neighborhood": "Glen Park",
    "reason": "Roommate Same Unit",
    "supervisor_district": "8",
    "zip": "94131",
    "year": "2011",
    "lat": "37.7380444699696",
    "long": " -122.427433671917"
  },
  {
    "address": "200 Block Of Gonzalez  Drive",
    "date": "11/12/2013",
    "eviction_id": "M132291",
    "neighborhood": "Lakeshore",
    "reason": "Breach",
    "supervisor_district": "7",
    "zip": "94132",
    "year": "2013",
    "lat": "37.7170812139986",
    "long": " -122.475545858124"
  },
  {
    "address": "0 Block Of Edinburgh  Street",
    "date": "10/04/2013",
    "eviction_id": "M131955",
    "neighborhood": "Excelsior",
    "reason": "Non Payment",
    "supervisor_district": "11",
    "zip": "94112",
    "year": "2013",
    "lat": "37.7280656597949",
    "long": " -122.426921734273"
  },
  {
    "address": "800 Block Of Lyon  Street",
    "date": "04/02/2014",
    "eviction_id": "M140627",
    "neighborhood": "Lone Mountain/USF",
    "reason": "Capital Improvement",
    "supervisor_district": "5",
    "zip": "94115",
    "year": "2014",
    "lat": "37.7785723340015",
    "long": " -122.443534688595"
  },
  {
    "address": "700 Block Of Green  Street",
    "date": "05/01/2012",
    "eviction_id": "M120634",
    "neighborhood": "Chinatown",
    "reason": "Breach",
    "supervisor_district": "3",
    "zip": "94133",
    "year": "2012",
    "lat": "37.7991983892167",
    "long": " -122.411030881491"
  },
  {
    "address": "2600 Block Of 44th  Avenue",
    "date": "01/28/2013",
    "eviction_id": "M130167",
    "neighborhood": "Sunset/Parkside",
    "reason": "Nuisance",
    "supervisor_district": "4",
    "zip": "94116",
    "year": "2013",
    "lat": "37.7372074996197",
    "long": " -122.502218767485"
  },
  {
    "address": "1900 Block Of Larkin  Street",
    "date": "02/13/2015",
    "eviction_id": "M150410",
    "neighborhood": "Russian Hill",
    "reason": "Ellis Act WithDrawal",
    "supervisor_district": "3",
    "zip": "94109",
    "year": "2015",
    "lat": "37.7956748460423",
    "long": " -122.41995424262"
  },
  {
    "address": "1400 Block Of Kansas  Street",
    "date": "12/01/2011",
    "eviction_id": "M111975",
    "neighborhood": "Potrero Hill",
    "reason": "Breach",
    "supervisor_district": "10",
    "zip": "94107",
    "year": "2011",
    "lat": "37.7512748566943",
    "long": " -122.402180137207"
  },
  {
    "address": "600 Block Of Guerrero  Street",
    "date": "03/31/2014",
    "eviction_id": "M140683",
    "neighborhood": "Mission",
    "reason": "Ellis Act WithDrawal",
    "supervisor_district": "8",
    "zip": "94110",
    "year": "2014",
    "lat": "37.76075852563",
    "long": " -122.423838174584"
  },
  {
    "address": "900 Block Of Sutter  Street",
    "date": "03/05/2014",
    "eviction_id": "M140481",
    "neighborhood": "Nob Hill",
    "reason": "Nuisance",
    "supervisor_district": "3",
    "zip": "94109",
    "year": "2014",
    "lat": "37.7882286864699",
    "long": " -122.415995198499"
  },
  {
    "address": "800 Block Of Bush  Street",
    "date": "09/15/2014",
    "eviction_id": "M142038",
    "neighborhood": "Nob Hill",
    "reason": "Roommate Same Unit",
    "supervisor_district": "3",
    "zip": "94108",
    "year": "2014",
    "lat": "37.7897914508404",
    "long": " -122.411243472892"
  },
  {
    "address": "500 Block Of Taylor  Street",
    "date": "03/25/2013",
    "eviction_id": "M130525",
    "neighborhood": "Tenderloin",
    "reason": "Unapproved Subtenant",
    "supervisor_district": "3",
    "zip": "94102",
    "year": "2013",
    "lat": "37.7874020704689",
    "long": " -122.411538882798"
  },
  {
    "address": "1000 Block Of Vicente  Street",
    "date": "11/12/2015",
    "eviction_id": "M153131",
    "neighborhood": "Sunset/Parkside",
    "reason": "Ellis Act WithDrawal",
    "supervisor_district": "4",
    "zip": "94116",
    "year": "2015",
    "lat": "37.7392614746946",
    "long": " -122.478112965192"
  },
  {
    "address": "300 Block Of Spruce  Street",
    "date": "06/14/2011",
    "eviction_id": "M110987",
    "neighborhood": "Presidio Heights",
    "reason": "Late Payments",
    "supervisor_district": "2",
    "zip": "94118",
    "year": "2011",
    "lat": "37.7877947835291",
    "long": " -122.453612544494"
  },
  {
    "address": "1500 Block Of Birchwood  Court",
    "date": "07/22/2011",
    "eviction_id": "M111208",
    "neighborhood": "Excelsior",
    "reason": "Non Payment",
    "supervisor_district": "10",
    "zip": "94134",
    "year": "2011",
    "lat": "37.7085411826323",
    "long": " -122.425872235474"
  },
  {
    "address": "200 Block Of Upper  Terrace",
    "date": "01/30/2012",
    "eviction_id": "M120129",
    "neighborhood": "Castro/Upper Market",
    "reason": "Breach",
    "supervisor_district": "8",
    "zip": "94127",
    "year": "2012",
    "lat": "37.7628549655396",
    "long": " -122.445069216182"
  },
  {
    "address": "700 Block Of Polk  Street",
    "date": "04/10/2012",
    "eviction_id": "M120518",
    "neighborhood": "Tenderloin",
    "reason": "Nuisance",
    "supervisor_district": "6",
    "zip": "94110",
    "year": "2012",
    "lat": "37.783343063446",
    "long": " -122.419159190758"
  },
  {
    "address": "300 Block Of Ashton  Avenue",
    "date": "03/31/2014",
    "eviction_id": "M140614",
    "neighborhood": "West of Twin Peaks",
    "reason": "Non Payment",
    "supervisor_district": "7",
    "zip": "94112",
    "year": "2014",
    "lat": "37.7245682252087",
    "long": " -122.462346841121"
  },
  {
    "address": "300 Block Of Turk  Street",
    "date": "09/02/2014",
    "eviction_id": "M141979",
    "neighborhood": "Tenderloin",
    "reason": "Breach",
    "supervisor_district": "6",
    "zip": "94102",
    "year": "2014",
    "lat": "37.7827439710395",
    "long": " -122.414884812363"
  },
  {
    "address": "2900 Block Of San Bruno  Avenue",
    "date": "12/24/2014",
    "eviction_id": "M142757",
    "neighborhood": "Portola",
    "reason": "Breach",
    "supervisor_district": "9",
    "zip": "94134",
    "year": "2014",
    "lat": "37.724652379424",
    "long": " -122.402288649237"
  },
  {
    "address": "300 Block Of Hermann  Street",
    "date": "02/02/2012",
    "eviction_id": "M120134",
    "neighborhood": "Hayes Valley",
    "reason": "Nuisance",
    "supervisor_district": "8",
    "zip": "94117",
    "year": "2012",
    "lat": "37.7700847248865",
    "long": " -122.430884411954"
  },
  {
    "address": "1100 Block Of Market  Street",
    "date": "08/16/2012",
    "eviction_id": "M121340",
    "neighborhood": "South of Market",
    "reason": "Development",
    "supervisor_district": "6",
    "zip": "94103",
    "year": "2012",
    "lat": "37.7795310847755",
    "long": " -122.413542549251"
  },
  {
    "address": "900 Block Of Huron  Avenue",
    "date": "03/28/2014",
    "eviction_id": "M140456",
    "neighborhood": "Outer Mission",
    "reason": "Owner Move In",
    "supervisor_district": "11",
    "zip": "94112",
    "year": "2014",
    "lat": "37.7097377270413",
    "long": " -122.45262614821"
  },
  {
    "address": "1100 Block Of Market  Street",
    "date": "08/16/2012",
    "eviction_id": "M121359",
    "neighborhood": "South of Market",
    "reason": "Development",
    "supervisor_district": "6",
    "zip": "94103",
    "year": "2012",
    "lat": "37.7795310847755",
    "long": " -122.413542549251"
  },
  {
    "address": "1100 Block Of Market  Street",
    "date": "08/16/2012",
    "eviction_id": "M121443",
    "neighborhood": "South of Market",
    "reason": "Development",
    "supervisor_district": "6",
    "zip": "94103",
    "year": "2012",
    "lat": "37.7795310847755",
    "long": " -122.413542549251"
  },
  {
    "address": "100 Block Of Folsom  Street",
    "date": "10/15/2013",
    "eviction_id": "M132086",
    "neighborhood": "Financial District/South Beach",
    "reason": "Breach",
    "supervisor_district": "6",
    "zip": "94105",
    "year": "2013",
    "lat": "37.7897584731635",
    "long": " -122.391463471681"
  },
  {
    "address": "900 Block Of Vicente  Street",
    "date": "03/15/2012",
    "eviction_id": "M120335",
    "neighborhood": "Sunset/Parkside",
    "reason": "Nuisance",
    "supervisor_district": "4",
    "zip": "94116",
    "year": "2012",
    "lat": "37.7391989209432",
    "long": " -122.47702616819"
  },
  {
    "address": "100 Block Of Bemis  Street",
    "date": "09/19/2013",
    "eviction_id": "M131685",
    "neighborhood": "Glen Park",
    "reason": "Owner Move In",
    "supervisor_district": "8",
    "zip": "94131",
    "year": "2013",
    "lat": "37.7376790516923",
    "long": " -122.429827848675"
  },
  {
    "address": "100 Block Of Cook  Street",
    "date": "08/09/2012",
    "eviction_id": "M121223",
    "neighborhood": "Lone Mountain/USF",
    "reason": "Breach",
    "supervisor_district": "1",
    "zip": "94118",
    "year": "2012",
    "lat": "37.7811643494204",
    "long": " -122.452074517886"
  },
  {
    "address": "100 Block Of Concord  Street",
    "date": "01/26/2015",
    "eviction_id": "M150207",
    "neighborhood": "Excelsior",
    "reason": "Unapproved Subtenant",
    "supervisor_district": "11",
    "zip": "94112",
    "year": "2015",
    "lat": "37.7115163704415",
    "long": " -122.44246999619"
  },
  {
    "address": "4100 Block Of 17th  Street",
    "date": "01/09/2013",
    "eviction_id": "M130062",
    "neighborhood": "Castro/Upper Market",
    "reason": "Nuisance",
    "supervisor_district": "8",
    "zip": "94114",
    "year": "2013",
    "lat": "37.7623775118356",
    "long": " -122.437885503702"
  },
  {
    "address": "0 Block Of San Felipe  Avenue",
    "date": "09/30/2014",
    "eviction_id": "M142183",
    "neighborhood": "West of Twin Peaks",
    "reason": "Roommate Same Unit",
    "supervisor_district": "7",
    "zip": "94127",
    "year": "2014",
    "lat": "37.7314812016002",
    "long": " -122.462473997932"
  },
  {
    "address": "200 Block Of 9th  Avenue",
    "date": "12/10/2015",
    "eviction_id": "M153364",
    "neighborhood": "Inner Richmond",
    "reason": "Non Payment",
    "supervisor_district": "1",
    "zip": "94103",
    "year": "2015",
    "lat": "37.7837385901545",
    "long": " -122.467627587109"
  },
  {
    "address": "200 Block Of Berry  Street",
    "date": "12/09/2015",
    "eviction_id": "M153357",
    "neighborhood": "Mission Bay",
    "reason": "Nuisance",
    "supervisor_district": "6",
    "zip": "94158",
    "year": "2015",
    "lat": "37.7748701731982",
    "long": " -122.394417072047"
  },
  {
    "address": "2200 Block Of Mission  Street",
    "date": "04/09/2014",
    "eviction_id": "M140725",
    "neighborhood": "Mission",
    "reason": "Nuisance",
    "supervisor_district": "9",
    "zip": "94110",
    "year": "2014",
    "lat": "37.761039768462",
    "long": " -122.419213668324"
  },
  {
    "address": "800 Block Of Shotwell  Street",
    "date": "06/09/2011",
    "eviction_id": "M111067",
    "neighborhood": "Mission",
    "reason": "Ellis Act WithDrawal",
    "supervisor_district": "9",
    "zip": "94110",
    "year": "2011",
    "lat": "37.7548296618768",
    "long": " -122.415465689137"
  },
  {
    "address": "200 Block Of Capp  Street",
    "date": "09/25/2015",
    "eviction_id": "M152616",
    "neighborhood": "Mission",
    "reason": "Breach",
    "supervisor_district": "9",
    "zip": "94110",
    "year": "2015",
    "lat": "37.7627024065833",
    "long": " -122.418417366628"
  },
  {
    "address": "1200 Block Of Thomas  Avenue",
    "date": "07/28/2014",
    "eviction_id": "M141679",
    "neighborhood": "Bayview Hunters Point",
    "reason": "Nuisance",
    "supervisor_district": "10",
    "zip": "94124",
    "year": "2014",
    "lat": "37.726746696817",
    "long": " -122.384706072643"
  },
  {
    "address": "0 Block Of Whaleship  Plaza",
    "date": "08/20/2013",
    "eviction_id": "M131628",
    "neighborhood": "",
    "reason": "Nuisance",
    "supervisor_district": "",
    "zip": "94111",
    "year": "2013",
    "lat": "",
    "long": ""
  },
  {
    "address": "2300 Block Of 29th  Avenue",
    "date": "05/06/2013",
    "eviction_id": "M130626",
    "neighborhood": "Sunset/Parkside",
    "reason": "Owner Move In",
    "supervisor_district": "4",
    "zip": "94116",
    "year": "2013",
    "lat": "37.7435152574801",
    "long": " -122.486402984943"
  },
  {
    "address": "2800 Block Of Pine  Street",
    "date": "02/07/2012",
    "eviction_id": "M120164",
    "neighborhood": "Pacific Heights",
    "reason": "Breach",
    "supervisor_district": "2",
    "zip": "94115",
    "year": "2012",
    "lat": "37.7867413943177",
    "long": " -122.442726732506"
  },
  {
    "address": "3000 Block Of Sacramento  Street",
    "date": "11/28/2012",
    "eviction_id": "M122221",
    "neighborhood": "Pacific Heights",
    "reason": "Other Cause",
    "supervisor_district": "2",
    "zip": "94115",
    "year": "2012",
    "lat": "37.7886212470578",
    "long": " -122.443107639336"
  },
  {
    "address": "400 Block Of Hayes  Street",
    "date": "04/18/2012",
    "eviction_id": "M120582",
    "neighborhood": "Hayes Valley",
    "reason": "Late Payments",
    "supervisor_district": "5",
    "zip": "94102",
    "year": "2012",
    "lat": "37.7767313126041",
    "long": " -122.423734940751"
  },
  {
    "address": "100 Block Of Parker  Avenue",
    "date": "11/13/2015",
    "eviction_id": "M153120",
    "neighborhood": "Presidio Heights",
    "reason": "Owner Move In",
    "supervisor_district": "2",
    "zip": "94118",
    "year": "2015",
    "lat": "37.7828036253366",
    "long": " -122.454487725657"
  },
  {
    "address": "200 Block Of 25th  Avenue",
    "date": "12/19/2014",
    "eviction_id": "M142815",
    "neighborhood": "Outer Richmond",
    "reason": "Ellis Act WithDrawal",
    "supervisor_district": "1",
    "zip": "94121",
    "year": "2014",
    "lat": "37.7848109229534",
    "long": " -122.48514853004"
  },
  {
    "address": "1700 Block Of Grove  Street",
    "date": "09/18/2015",
    "eviction_id": "M152515",
    "neighborhood": "Lone Mountain/USF",
    "reason": "Breach",
    "supervisor_district": "5",
    "zip": "94117",
    "year": "2015",
    "lat": "37.7750328321511",
    "long": " -122.44544921355"
  },
  {
    "address": "200 Block Of Dolores  Street",
    "date": "12/18/2014",
    "eviction_id": "M142726",
    "neighborhood": "Castro/Upper Market",
    "reason": "Breach",
    "supervisor_district": "8",
    "zip": "94103",
    "year": "2014",
    "lat": "37.7652067507312",
    "long": " -122.426591617441"
  },
  {
    "address": "400 Block Of Lyon  Street",
    "date": "11/21/2012",
    "eviction_id": "M122192",
    "neighborhood": "Lone Mountain/USF",
    "reason": "Demolition",
    "supervisor_district": "5",
    "zip": "94117",
    "year": "2012",
    "lat": "37.7748184229282",
    "long": " -122.442918467594"
  },
  {
    "address": "3400 Block Of 25th  Street",
    "date": "04/09/2014",
    "eviction_id": "M140728",
    "neighborhood": "Mission",
    "reason": "Breach",
    "supervisor_district": "9",
    "zip": "94110",
    "year": "2014",
    "lat": "37.7505017382112",
    "long": " -122.41966143407"
  },
  {
    "address": "1100 Block Of Church  Street",
    "date": "06/27/2014",
    "eviction_id": "M141322",
    "neighborhood": "Noe Valley",
    "reason": "Owner Move In",
    "supervisor_district": "8",
    "zip": "94114",
    "year": "2014",
    "lat": "37.7528666796334",
    "long": " -122.427612258633"
  },
  {
    "address": "400 Block Of Fair Oaks  Street",
    "date": "08/29/2012",
    "eviction_id": "M121618",
    "neighborhood": "Mission",
    "reason": "Nuisance",
    "supervisor_district": "8",
    "zip": "94110",
    "year": "2012",
    "lat": "37.7495035426492",
    "long": " -122.423822512803"
  },
  {
    "address": "100 Block Of Balceta  Avenue",
    "date": "06/07/2012",
    "eviction_id": "M120750",
    "neighborhood": "West of Twin Peaks",
    "reason": "Owner Move In",
    "supervisor_district": "7",
    "zip": "94127",
    "year": "2012",
    "lat": "37.7455466913177",
    "long": " -122.458040346106"
  },
  {
    "address": "200 Block Of Valencia  Street",
    "date": "11/12/2014",
    "eviction_id": "M142513",
    "neighborhood": "Mission",
    "reason": "Breach",
    "supervisor_district": "8",
    "zip": "94103",
    "year": "2014",
    "lat": "37.7684427414407",
    "long": " -122.42229765833"
  },
  {
    "address": "0 Block Of Golden Gate  Avenue",
    "date": "10/16/2013",
    "eviction_id": "M132092",
    "neighborhood": "Tenderloin",
    "reason": "Nuisance",
    "supervisor_district": "6",
    "zip": "94102",
    "year": "2013",
    "lat": "37.7822500870637",
    "long": " -122.411268612991"
  },
  {
    "address": "0 Block Of Moss  Street",
    "date": "08/04/2014",
    "eviction_id": "M141718",
    "neighborhood": "South of Market",
    "reason": "Breach",
    "supervisor_district": "6",
    "zip": "94103",
    "year": "2014",
    "lat": "37.7777588131922",
    "long": " -122.408112397936"
  },
  {
    "address": "900 Block Of Jones  Street",
    "date": "02/25/2014",
    "eviction_id": "M140471",
    "neighborhood": "Nob Hill",
    "reason": "Ellis Act WithDrawal",
    "supervisor_district": "3",
    "zip": "94109",
    "year": "2014",
    "lat": "37.7900048583685",
    "long": " -122.413753783769"
  },
  {
    "address": "3400 Block Of 26th  Street",
    "date": "05/12/2014",
    "eviction_id": "M141077",
    "neighborhood": "Mission",
    "reason": "Breach",
    "supervisor_district": "9",
    "zip": "94110",
    "year": "2014",
    "lat": "37.7490448498639",
    "long": " -122.418983577329"
  },
  {
    "address": "0 Block Of Short  Street",
    "date": "01/18/2013",
    "eviction_id": "M130008",
    "neighborhood": "Castro/Upper Market",
    "reason": "Owner Move In",
    "supervisor_district": "8",
    "zip": "94114",
    "year": "2013",
    "lat": "37.7577310847572",
    "long": " -122.442772241428"
  },
  {
    "address": "2200 Block Of Lake  Street",
    "date": "11/13/2015",
    "eviction_id": "M153143",
    "neighborhood": "Outer Richmond",
    "reason": "Late Payments",
    "supervisor_district": "1",
    "zip": "94121",
    "year": "2015",
    "lat": "37.7857597024523",
    "long": " -122.483539028311"
  },
  {
    "address": "3500 Block Of Santiago  Street",
    "date": "06/13/2013",
    "eviction_id": "M131110",
    "neighborhood": "Sunset/Parkside",
    "reason": "Breach",
    "supervisor_district": "4",
    "zip": "94116",
    "year": "2013",
    "lat": "37.7435644416813",
    "long": " -122.505284356026"
  },
  {
    "address": "1700 Block Of Washington  Street",
    "date": "01/20/2015",
    "eviction_id": "M150169",
    "neighborhood": "Russian Hill",
    "reason": "Nuisance",
    "supervisor_district": "3",
    "zip": "94109",
    "year": "2015",
    "lat": "37.7932081771558",
    "long": " -122.42206150211"
  },
  {
    "address": "200 Block Of Downey  Street",
    "date": "04/17/2012",
    "eviction_id": "M120362",
    "neighborhood": "Haight Ashbury",
    "reason": "Owner Move In",
    "supervisor_district": "5",
    "zip": "94117",
    "year": "2012",
    "lat": "37.7654182578924",
    "long": " -122.446783639096"
  },
  {
    "address": "1600 Block Of North Point  Street",
    "date": "04/29/2013",
    "eviction_id": "M130620",
    "neighborhood": "Marina",
    "reason": "Owner Move In",
    "supervisor_district": "2",
    "zip": "94123",
    "year": "2013",
    "lat": "37.8038740286953",
    "long": " -122.434335915803"
  },
  {
    "address": "2600 Block Of 22nd  Road",
    "date": "08/09/2013",
    "eviction_id": "M131353",
    "neighborhood": "",
    "reason": "Owner Move In",
    "supervisor_district": "",
    "zip": "94110",
    "year": "2013",
    "lat": "",
    "long": ""
  },
  {
    "address": "200 Block Of 4th  Avenue",
    "date": "02/12/2013",
    "eviction_id": "M130230",
    "neighborhood": "Inner Richmond",
    "reason": "Ellis Act WithDrawal",
    "supervisor_district": "1",
    "zip": "94118",
    "year": "2013",
    "lat": "37.7839758036439",
    "long": " -122.462278443445"
  },
  {
    "address": "1700 Block Of Quesada  Avenue",
    "date": "03/12/2014",
    "eviction_id": "M140550",
    "neighborhood": "Bayview Hunters Point",
    "reason": "Breach",
    "supervisor_district": "10",
    "zip": "94124",
    "year": "2014",
    "lat": "37.7337337199008",
    "long": " -122.392373014374"
  },
  {
    "address": "1400 Block Of 25th  Avenue",
    "date": "12/29/2014",
    "eviction_id": "M142778",
    "neighborhood": "Sunset/Parkside",
    "reason": "Owner Move In",
    "supervisor_district": "4",
    "zip": "94122",
    "year": "2014",
    "lat": "37.7604798463358",
    "long": " -122.483426694195"
  },
  {
    "address": "1100 Block Of Market  Street",
    "date": "08/16/2012",
    "eviction_id": "M121302",
    "neighborhood": "South of Market",
    "reason": "Development",
    "supervisor_district": "6",
    "zip": "94103",
    "year": "2012",
    "lat": "37.7795310847755",
    "long": " -122.413542549251"
  },
  {
    "address": "0 Block Of Corwin  Street",
    "date": "11/04/2011",
    "eviction_id": "M111825",
    "neighborhood": "Twin Peaks",
    "reason": "Unapproved Subtenant",
    "supervisor_district": "8",
    "zip": "94114",
    "year": "2011",
    "lat": "37.7570531327791",
    "long": " -122.439618182038"
  },
  {
    "address": "1000 Block Of Scott  Street",
    "date": "04/16/2014",
    "eviction_id": "M140842",
    "neighborhood": "Western Addition",
    "reason": "Breach",
    "supervisor_district": "5",
    "zip": "94115",
    "year": "2014",
    "lat": "37.7791621678062",
    "long": " -122.436999907643"
  },
  {
    "address": "300 Block Of Sawyer  Street",
    "date": "06/06/2014",
    "eviction_id": "M141213",
    "neighborhood": "Visitacion Valley",
    "reason": "Late Payments",
    "supervisor_district": "10",
    "zip": "94134",
    "year": "2014",
    "lat": "37.7137992138863",
    "long": " -122.414196418796"
  },
  {
    "address": "600 Block Of 15th  Avenue",
    "date": "01/24/2014",
    "eviction_id": "M140158",
    "neighborhood": "Outer Richmond",
    "reason": "Multiple",
    "supervisor_district": "1",
    "zip": "94118",
    "year": "2014",
    "lat": "37.7758570937123",
    "long": " -122.473699636544"
  },
  {
    "address": "3600 Block Of Mission  Street",
    "date": "01/28/2011",
    "eviction_id": "M110092",
    "neighborhood": "Bernal Heights",
    "reason": "Breach",
    "supervisor_district": "9",
    "zip": "94110",
    "year": "2011",
    "lat": "37.7381219971127",
    "long": " -122.423925391232"
  },
  {
    "address": "800 Block Of Harrison  Street",
    "date": "02/21/2013",
    "eviction_id": "M130325",
    "neighborhood": "South of Market",
    "reason": "Breach",
    "supervisor_district": "6",
    "zip": "94107",
    "year": "2013",
    "lat": "37.779950743103",
    "long": " -122.400778586814"
  },
  {
    "address": "1100 Block Of York  Street",
    "date": "06/04/2013",
    "eviction_id": "M131061",
    "neighborhood": "Mission",
    "reason": "Ellis Act WithDrawal",
    "supervisor_district": "9",
    "zip": "94110",
    "year": "2013",
    "lat": "37.7536484602806",
    "long": " -122.408334854175"
  },
  {
    "address": "500 Block Of 5th  Avenue",
    "date": "04/07/2014",
    "eviction_id": "M140731",
    "neighborhood": "Inner Richmond",
    "reason": "Owner Move In",
    "supervisor_district": "1",
    "zip": "94118",
    "year": "2014",
    "lat": "37.7782138474424",
    "long": " -122.462939396977"
  },
  {
    "address": "2200 Block Of Leavenworth  Street",
    "date": "11/01/2012",
    "eviction_id": "M122039",
    "neighborhood": "Russian Hill",
    "reason": "Nuisance",
    "supervisor_district": "2",
    "zip": "94133",
    "year": "2012",
    "lat": "37.8019462869766",
    "long": " -122.417990392854"
  },
  {
    "address": "600 Block Of Scott  Street",
    "date": "05/10/2013",
    "eviction_id": "M130848",
    "neighborhood": "Hayes Valley",
    "reason": "Breach",
    "supervisor_district": "5",
    "zip": "94117",
    "year": "2013",
    "lat": "37.7756631452248",
    "long": " -122.436291871054"
  },
  {
    "address": "400 Block Of Lake  Street",
    "date": "12/07/2011",
    "eviction_id": "M112005",
    "neighborhood": "Inner Richmond",
    "reason": "Breach",
    "supervisor_district": "2",
    "zip": "94118",
    "year": "2011",
    "lat": "37.7867508381317",
    "long": " -122.464159840276"
  },
  {
    "address": "2400 Block Of Geary  Boulevard",
    "date": "10/22/2013",
    "eviction_id": "M132128",
    "neighborhood": "Presidio Heights",
    "reason": "Breach",
    "supervisor_district": "2",
    "zip": "94115",
    "year": "2013",
    "lat": "37.7829201125156",
    "long": " -122.443626725997"
  },
  {
    "address": "1600 Block Of Vallejo  Street",
    "date": "11/14/2014",
    "eviction_id": "M142540",
    "neighborhood": "Marina",
    "reason": "Nuisance",
    "supervisor_district": "2",
    "zip": "94123",
    "year": "2014",
    "lat": "37.7966404163258",
    "long": " -122.424436547074"
  },
  {
    "address": "100 Block Of Font  Boulevard",
    "date": "07/13/2011",
    "eviction_id": "M111131",
    "neighborhood": "Lakeshore",
    "reason": "Breach",
    "supervisor_district": "7",
    "zip": "94132",
    "year": "2011",
    "lat": "37.715545052959",
    "long": " -122.473629919957"
  },
  {
    "address": "0 Block Of Downey  Street",
    "date": "05/29/2012",
    "eviction_id": "M120744",
    "neighborhood": "Haight Ashbury",
    "reason": "Owner Move In",
    "supervisor_district": "5",
    "zip": "94117",
    "year": "2012",
    "lat": "37.7680316514456",
    "long": " -122.447448227923"
  },
  {
    "address": "1600 Block Of 31st  Avenue",
    "date": "10/22/2013",
    "eviction_id": "M132129",
    "neighborhood": "Sunset/Parkside",
    "reason": "Breach",
    "supervisor_district": "4",
    "zip": "94116",
    "year": "2013",
    "lat": "37.7564674457799",
    "long": " -122.489594104362"
  },
  {
    "address": "2600 Block Of Folsom  Street",
    "date": "09/05/2014",
    "eviction_id": "M141998",
    "neighborhood": "Mission",
    "reason": "Non Payment",
    "supervisor_district": "9",
    "zip": "94110",
    "year": "2014",
    "lat": "37.754903360125",
    "long": " -122.414241576754"
  },
  {
    "address": "1900 Block Of 16th  Avenue",
    "date": "10/25/2011",
    "eviction_id": "M111726",
    "neighborhood": "Inner Sunset",
    "reason": "Breach",
    "supervisor_district": "7",
    "zip": "94116",
    "year": "2011",
    "lat": "37.7515886184531",
    "long": " -122.472998806943"
  },
  {
    "address": "500 Block Of Parker  Street",
    "date": "02/23/2015",
    "eviction_id": "M150309",
    "neighborhood": "",
    "reason": "Breach",
    "supervisor_district": "",
    "zip": "94118",
    "year": "2015",
    "lat": "",
    "long": ""
  },
  {
    "address": "1400 Block Of 17th  Avenue",
    "date": "09/25/2012",
    "eviction_id": "M121582",
    "neighborhood": "Inner Sunset",
    "reason": "Owner Move In",
    "supervisor_district": "7",
    "zip": "94122",
    "year": "2012",
    "lat": "37.7608577155035",
    "long": " -122.474858703325"
  },
  {
    "address": "200 Block Of Garces  Drive",
    "date": "05/12/2011",
    "eviction_id": "M110769",
    "neighborhood": "Lakeshore",
    "reason": "Breach",
    "supervisor_district": "7",
    "zip": "94132",
    "year": "2011",
    "lat": "37.7156320409131",
    "long": " -122.480767509243"
  },
  {
    "address": "200 Block Of 27th  Avenue",
    "date": "05/02/2014",
    "eviction_id": "M141019",
    "neighborhood": "Outer Richmond",
    "reason": "Ellis Act WithDrawal",
    "supervisor_district": "2",
    "zip": "94121",
    "year": "2014",
    "lat": "37.7847203012839",
    "long": " -122.487149444925"
  },
  {
    "address": "1100 Block Of Market  Street",
    "date": "08/16/2012",
    "eviction_id": "M121306",
    "neighborhood": "South of Market",
    "reason": "Development",
    "supervisor_district": "6",
    "zip": "94103",
    "year": "2012",
    "lat": "37.7795310847755",
    "long": " -122.413542549251"
  },
  {
    "address": "600 Block Of Eddy  Street",
    "date": "10/16/2014",
    "eviction_id": "M142289",
    "neighborhood": "Tenderloin",
    "reason": "Other Cause",
    "supervisor_district": "6",
    "zip": "94109",
    "year": "2014",
    "lat": "37.783260386453",
    "long": " -122.418366153846"
  },
  {
    "address": "1200 Block Of Thomas  Avenue",
    "date": "08/14/2014",
    "eviction_id": "M141817",
    "neighborhood": "Bayview Hunters Point",
    "reason": "Nuisance",
    "supervisor_district": "10",
    "zip": "94124",
    "year": "2014",
    "lat": "37.726746696817",
    "long": " -122.384706072643"
  },
  {
    "address": "3800 Block Of 22nd  Street",
    "date": "07/18/2014",
    "eviction_id": "M141555",
    "neighborhood": "Noe Valley",
    "reason": "Nuisance",
    "supervisor_district": "8",
    "zip": "94114",
    "year": "2014",
    "lat": "37.7546156126456",
    "long": " -122.433291053378"
  },
  {
    "address": "3600 Block Of 18th  Street",
    "date": "09/20/2011",
    "eviction_id": "M111511",
    "neighborhood": "Mission",
    "reason": "Breach",
    "supervisor_district": "8",
    "zip": "94110",
    "year": "2011",
    "lat": "37.7615139134847",
    "long": " -122.425555969015"
  },
  {
    "address": "2700 Block Of 21st  Street",
    "date": "08/11/2014",
    "eviction_id": "M141744",
    "neighborhood": "Mission",
    "reason": "Capital Improvement",
    "supervisor_district": "9",
    "zip": "94110",
    "year": "2014",
    "lat": "37.7576778105026",
    "long": " -122.409125012434"
  },
  {
    "address": "0 Block Of Mcallister  Street",
    "date": "11/18/2013",
    "eviction_id": "M132335",
    "neighborhood": "Tenderloin",
    "reason": "Nuisance",
    "supervisor_district": "6",
    "zip": "94102",
    "year": "2013",
    "lat": "37.7811192123077",
    "long": " -122.412596970844"
  },
  {
    "address": "500 Block Of Lombard  Street",
    "date": "02/04/2013",
    "eviction_id": "M130199",
    "neighborhood": "North Beach",
    "reason": "Ellis Act WithDrawal",
    "supervisor_district": "3",
    "zip": "94133",
    "year": "2013",
    "lat": "37.8031525873383",
    "long": " -122.410878575791"
  },
  {
    "address": "3400 Block Of 18th  Street",
    "date": "03/24/2014",
    "eviction_id": "M140590",
    "neighborhood": "Mission",
    "reason": "Breach",
    "supervisor_district": "9",
    "zip": "94110",
    "year": "2014",
    "lat": "37.7617135511488",
    "long": " -122.420465162593"
  },
  {
    "address": "800 Block Of Silliman  Street",
    "date": "07/03/2015",
    "eviction_id": "M151647",
    "neighborhood": "Portola",
    "reason": "Illegal Use",
    "supervisor_district": "9",
    "zip": "94134",
    "year": "2015",
    "lat": "37.7289916949564",
    "long": " -122.413456492982"
  },
  {
    "address": "1700 Block Of 26th  Avenue",
    "date": "06/26/2015",
    "eviction_id": "M151586",
    "neighborhood": "Sunset/Parkside",
    "reason": "Demolition",
    "supervisor_district": "4",
    "zip": "94122",
    "year": "2015",
    "lat": "37.7548405075406",
    "long": " -122.484108127485"
  },
  {
    "address": "2400 Block Of Webster  Street",
    "date": "01/18/2013",
    "eviction_id": "M130114",
    "neighborhood": "Pacific Heights",
    "reason": "Breach",
    "supervisor_district": "2",
    "zip": "94115",
    "year": "2013",
    "lat": "37.7933297564357",
    "long": " -122.433112344583"
  },
  {
    "address": "1700 Block Of Cayuga  Avenue",
    "date": "12/28/2015",
    "eviction_id": "M153483",
    "neighborhood": "Outer Mission",
    "reason": "Unapproved Subtenant",
    "supervisor_district": "11",
    "zip": "94112",
    "year": "2015",
    "lat": "37.7144728500615",
    "long": " -122.449025394186"
  },
  {
    "address": "500 Block Of Chestnut  Street",
    "date": "08/08/2013",
    "eviction_id": "M131491",
    "neighborhood": "North Beach",
    "reason": "Ellis Act WithDrawal",
    "supervisor_district": "3",
    "zip": "94133",
    "year": "2013",
    "lat": "37.8039396039846",
    "long": " -122.412226431236"
  },
  {
    "address": "500 Block Of Cayuga  Avenue",
    "date": "09/19/2011",
    "eviction_id": "M110953",
    "neighborhood": "Outer Mission",
    "reason": "Owner Move In",
    "supervisor_district": "11",
    "zip": "94124",
    "year": "2011",
    "lat": "37.7290168824456",
    "long": " -122.435529372672"
  },
  {
    "address": "1200 Block Of Grant  Avenue",
    "date": "04/06/2015",
    "eviction_id": "M150738",
    "neighborhood": "North Beach",
    "reason": "Breach",
    "supervisor_district": "3",
    "zip": "94133",
    "year": "2015",
    "lat": "37.798329334083",
    "long": " -122.40704747764"
  },
  {
    "address": "800 Block Of Shotwell  Street",
    "date": "05/07/2012",
    "eviction_id": "M120691",
    "neighborhood": "Mission",
    "reason": "Ellis Act WithDrawal",
    "supervisor_district": "9",
    "zip": "94110",
    "year": "2012",
    "lat": "37.7548296618768",
    "long": " -122.415465689137"
  },
  {
    "address": "200 Block Of 21st  Avenue",
    "date": "08/14/2015",
    "eviction_id": "M152155",
    "neighborhood": "Outer Richmond",
    "reason": "Ellis Act WithDrawal",
    "supervisor_district": "1",
    "zip": "94121",
    "year": "2015",
    "lat": "37.7831476179294",
    "long": " -122.480588567755"
  },
  {
    "address": "1100 Block Of Mission  Street",
    "date": "01/25/2011",
    "eviction_id": "M110083",
    "neighborhood": "South of Market",
    "reason": "Breach",
    "supervisor_district": "6",
    "zip": "94103",
    "year": "2011",
    "lat": "37.7777903091017",
    "long": " -122.412834332583"
  },
  {
    "address": "1100 Block Of Market  Street",
    "date": "08/16/2012",
    "eviction_id": "M121279",
    "neighborhood": "South of Market",
    "reason": "Development",
    "supervisor_district": "6",
    "zip": "94103",
    "year": "2012",
    "lat": "37.7795310847755",
    "long": " -122.413542549251"
  },
  {
    "address": "1800 Block Of Jackson  Street",
    "date": "07/22/2011",
    "eviction_id": "M111206",
    "neighborhood": "Pacific Heights",
    "reason": "Breach",
    "supervisor_district": "2",
    "zip": "94109",
    "year": "2011",
    "lat": "37.7936758445754",
    "long": " -122.425525660428"
  },
  {
    "address": "100 Block Of 6th  Street",
    "date": "03/17/2011",
    "eviction_id": "M110329",
    "neighborhood": "South of Market",
    "reason": "Breach",
    "supervisor_district": "6",
    "zip": "94103",
    "year": "2011",
    "lat": "37.7807920800724",
    "long": " -122.408385745869"
  },
  {
    "address": "1400 Block Of 20th  Avenue",
    "date": "06/19/2012",
    "eviction_id": "M120918",
    "neighborhood": "Sunset/Parkside",
    "reason": "Nuisance",
    "supervisor_district": "4",
    "zip": "94122",
    "year": "2012",
    "lat": "37.7607159070332",
    "long": " -122.478068414559"
  },
  {
    "address": "100 Block Of Highland  Avenue",
    "date": "05/27/2014",
    "eviction_id": "M141182",
    "neighborhood": "Bernal Heights",
    "reason": "Condo Conversion",
    "supervisor_district": "9",
    "zip": "94110",
    "year": "2014",
    "lat": "37.7374368854785",
    "long": " -122.423574016781"
  },
  {
    "address": "0 Block Of Jersey  Street",
    "date": "03/26/2012",
    "eviction_id": "M120428",
    "neighborhood": "Noe Valley",
    "reason": "Nuisance",
    "supervisor_district": "8",
    "zip": "94114",
    "year": "2012",
    "lat": "37.7508743760374",
    "long": " -122.42679745899"
  },
  {
    "address": "800 Block Of Gonzalez  Drive",
    "date": "09/22/2011",
    "eviction_id": "M111551",
    "neighborhood": "Lakeshore",
    "reason": "Breach",
    "supervisor_district": "7",
    "zip": "94132",
    "year": "2011",
    "lat": "37.7175027178154",
    "long": " -122.482376864578"
  },
  {
    "address": "1200 Block Of 18th  Avenue",
    "date": "05/04/2015",
    "eviction_id": "M151078",
    "neighborhood": "Inner Sunset",
    "reason": "Breach",
    "supervisor_district": "4",
    "zip": "94122",
    "year": "2015",
    "lat": "37.7645505553808",
    "long": " -122.476189588758"
  },
  {
    "address": "1200 Block Of De Haro  Street",
    "date": "05/11/2015",
    "eviction_id": "M151156",
    "neighborhood": "Potrero Hill",
    "reason": "Owner Move In",
    "supervisor_district": "10",
    "zip": "94107",
    "year": "2015",
    "lat": "37.7539778071358",
    "long": " -122.400633135535"
  },
  {
    "address": "1100 Block Of Market  Street",
    "date": "08/16/2012",
    "eviction_id": "M121319",
    "neighborhood": "South of Market",
    "reason": "Development",
    "supervisor_district": "6",
    "zip": "94103",
    "year": "2012",
    "lat": "37.7795310847755",
    "long": " -122.413542549251"
  },
  {
    "address": "1100 Block Of Market  Street",
    "date": "08/16/2012",
    "eviction_id": "M121486",
    "neighborhood": "South of Market",
    "reason": "Development",
    "supervisor_district": "6",
    "zip": "94103",
    "year": "2012",
    "lat": "37.7795310847755",
    "long": " -122.413542549251"
  },
  {
    "address": "600 Block Of Clay  Street",
    "date": "08/03/2012",
    "eviction_id": "M121207",
    "neighborhood": "Chinatown",
    "reason": "Nuisance",
    "supervisor_district": "3",
    "zip": "94111",
    "year": "2012",
    "lat": "37.7946138636067",
    "long": " -122.403978967336"
  },
  {
    "address": "100 Block Of Wilde  Avenue",
    "date": "04/27/2015",
    "eviction_id": "M151007",
    "neighborhood": "Visitacion Valley",
    "reason": "Breach",
    "supervisor_district": "10",
    "zip": "94134",
    "year": "2015",
    "lat": "37.7163934084999",
    "long": " -122.400590197106"
  },
  {
    "address": "1600 Block Of Palou  Avenue",
    "date": "05/13/2014",
    "eviction_id": "M141085",
    "neighborhood": "Bayview Hunters Point",
    "reason": "Non Payment",
    "supervisor_district": "10",
    "zip": "94124",
    "year": "2014",
    "lat": "37.7344812745743",
    "long": " -122.391912066786"
  },